OperatorName,Address.City,Address.PostalCode,Address.Street,Address.HouseNum,lat,lon,charger_count
AIL,Morcote,6922,Strecia da la Filanda,nan,45.92475,8.919802,19
AIL,Muzzano,6933,Via alla foce,14.0,45.99541246533,8.90844226332903,2
AVIA VOLT Suisse AG,Sankt Gallen,9015,Zürcher Strasse 464,,47.40828186,9.30368267,42
AVIA VOLT Suisse AG,Zurich,8000,Hardstrasse 201,,47.38614,8.51738,21
AVIA VOLT Suisse AG,Domat / Ems,7013,Parc Industrial Vial 10,,46.83112,9.42718,16
AVIA VOLT Suisse AG,Bonaduz,7402,Via Crusch 8,,46.8079,9.39707,14
AVIA VOLT Suisse AG,Dättwil,5405,Segelhofstrasse 1,,47.45842,8.2795,13
AVIA VOLT Suisse AG,Le Chenit,1348,Route de France 8,,46.58064,6.20974,13
AVIA VOLT Suisse AG,Oberkirch,6208,Leidenbergstrasse 17,,47.162967,8.091507,13
AVIA VOLT Suisse AG,Baden,5400,Kreuzweg,,47.47903,8.30378,10
AVIA VOLT Suisse AG,Neuhausen am Rheinfall,8212,Im Rhytech 1,,47.682461,8.613662,10
AVIA VOLT Suisse AG,Davos,7270,Scalettastrasse 22,,46.802174,9.8342,7
AVIA VOLT Suisse AG,Laax,7031,Via Uletsch 1,,46.81695,9.2673,7
AVIA VOLT Suisse AG,Dierikon,6036,Kantonsstrasse 29,,47.0939257,8.36279223,6
AVIA VOLT Suisse AG,Frauenfeld,8005,Zürcherstrasse 305,,47.5647,8.90991,6
AVIA VOLT Suisse AG,Glarus Süd,8783,Stachelbergstrasse 2,,46.92836,9.00187,6
AVIA VOLT Suisse AG,Neuhausen am Rheinfall,8212,Rheinfallstrasse,,47.67684,8.61003,6
AVIA VOLT Suisse AG,Pontresina,7504,Via Maistra 160,,46.49141,9.90384,6
AVIA VOLT Suisse AG,Pontresina,7504,Via Maistra 215,,46.48779,9.90757,6
AVIA VOLT Suisse AG,Sankt Margrethen,9430,Raststätte St. Margrethen Süd 1,,47.46070015,9.60313238,6
AVIA VOLT Suisse AG,Schaffhausen,8207,Ernst-Müller-Strasse 2,,47.71818089,8.67084878,6
AVIA VOLT Suisse AG,Engelberg,6390,Gerschnistrasse 12,,46.81676,8.39864,5
AVIA VOLT Suisse AG,Opfikon,8152,Riethofstrasse 40,,47.43867,8.56546,5
AVIA VOLT Suisse AG,Bonstetten,8906,Am Lochenweiher 167,,47.31011,8.47846,4
AVIA VOLT Suisse AG,Buttisholz,6218,Gewerbezone 82,,47.113809,8.078018,4
AVIA VOLT Suisse AG,Bühler,9055,Austrasse 8,,47.37506,9.40409,4
AVIA VOLT Suisse AG,Chur,7000,Rossbodenstrasse 18,,46.85185326,9.5054582,4
AVIA VOLT Suisse AG,Gonten,9108,Gontenstrasse 51,,47.33188,9.37428,4
AVIA VOLT Suisse AG,Jenaz,7231,Garola 15,,46.93683,9.71141,4
AVIA VOLT Suisse AG,Klosters,7250,Talbachstrasse,,46.86671,9.88333,4
AVIA VOLT Suisse AG,Lancy,1213,Route de Chancy 59,,46.187658,6.112805,4
AVIA VOLT Suisse AG,Niederhasli,8156,Grabenackerstrasse 1,,47.45948,8.49075,4
AVIA VOLT Suisse AG,Pontresina,7504,Via Maistra 133,,46.49282,9.90259,4
AVIA VOLT Suisse AG,Riom,7463,Pale Soura 6,,46.60978,9.58105,4
AVIA VOLT Suisse AG,Rüschlikon,8803,Säumerstrasse 37,,47.306047,8.550194,4
AVIA VOLT Suisse AG,Schaffhausen,8200,Fulachstrasse 150,,47.70878833,8.64131518,4
AVIA VOLT Suisse AG,Sennwald,9466,Simon - Frick - Strasse 3,,47.24553,9.51511,4
AVIA VOLT Suisse AG,St. Gallen,9500,Fürstenlandstrasse 17,,47.41526072,9.35364179,4
AVIA VOLT Suisse AG,Stein am Rhein,8260,Fronhofgass 3,,47.66094,8.858036,4
AVIA VOLT Suisse AG,Sursee,6210,Oberer Graben,,47.172612,8.111,4
AVIA VOLT Suisse AG,Thalwil,8800,Bahnhofstrasse 16,,47.295522,8.565964,4
AVIA VOLT Suisse AG,Untervaz,7204,Rüfiweg 4,,46.93237,9.5398,4
AVIA VOLT Suisse AG,Zuoz,7524,Via Castell 300,,46.59847,9.94947,4
AVIA VOLT Suisse AG,Zurich,8052,Fernsehstrasse 1,,47.41717,8.56141,4
AVIA VOLT Suisse AG,Bad Ragaz,7310,Hans-Albrecht-Strasse 1,,46.999054,9.504945,3
AVIA VOLT Suisse AG,Baden,5400,Bruggerstrasse 72,,47.479679,8.302928,3
AVIA VOLT Suisse AG,Ebnat-Kappel,9642,Gieselbach 2218,,47.25845811,9.14164369,3
AVIA VOLT Suisse AG,"Ems, Bonaduz",7013,Plazza Staziun,,46.83274,9.45227,3
AVIA VOLT Suisse AG,Gossau,9200,Bischofszellerstrasse 133,,47.4277,9.24115,3
AVIA VOLT Suisse AG,Grosswangen,6022,Gewerbe Mooshof 1,,47.12718072,8.05668517,3
AVIA VOLT Suisse AG,Ittigen,3063,Talgut-Zentrum 34,,46.974772,7.481642,3
AVIA VOLT Suisse AG,Kölliken,5742,Hauptstrasse 3,,47.33882633,8.02571118,3
AVIA VOLT Suisse AG,Küblis,7240,Hauptstrass 9,,46.91460572,9.77369817,3
AVIA VOLT Suisse AG,La Punt Chamues-ch,7522,Via Camünela 2,,46.578989,9.925235,3
AVIA VOLT Suisse AG,Landquart,7302,Kantonsstrasse 20,,46.96744,9.56316,3
AVIA VOLT Suisse AG,Muttenz,4132,Birsfelderstrasse 44,,47.535959,7.634035,3
AVIA VOLT Suisse AG,Niederbüren,9246,Staatsstrasse 14,,47.46506,9.20116,3
AVIA VOLT Suisse AG,Poschiavo,7746,Spinadascio 2,,46.298487,10.073792,3
AVIA VOLT Suisse AG,Samedan,7503,Via Retica,,46.53302,9.87178,3
AVIA VOLT Suisse AG,Samnaun,7562,Schulstrasse 16,,46.95994,10.40177,3
AVIA VOLT Suisse AG,Samnaun,7563,Musellastrasse 35,,46.94243,10.35735,3
AVIA VOLT Suisse AG,Splügen,7435,Bodawäg 2,,46.55348,9.32436,3
AVIA VOLT Suisse AG,Splügen,7435,Italienische Strasse 11,,46.55329,9.32506,3
AVIA VOLT Suisse AG,Vella,7144,Pellas 213,,46.71741,9.16993,3
AVIA VOLT Suisse AG,Zurich,8001,Hirschengraben 15,,47.37236,8.54683,3
AVIA VOLT Suisse AG,Zurich,8027,Seestrasse 220,,47.352634,8.53154,3
AVIA VOLT Suisse AG,Zuzwil,9524,Herbergstrasse 21,,47.47105,9.11232,3
AVIA VOLT Suisse AG,Albula-Alvra,7450,Bahnhof,,46.663891,9.572299,2
AVIA VOLT Suisse AG,Allschwil,4123,Hagmattstrasse 7a,,47.5562,7.5421,2
AVIA VOLT Suisse AG,Altnau,8595,Landstrasse 25,,47.61769874,9.26877589,2
AVIA VOLT Suisse AG,Andeer,7440,Veia Granda 2,,46.60582,9.42697,2
AVIA VOLT Suisse AG,Arbon,9320,Egnacherstrasse 4,,47.52119,9.41422,2
AVIA VOLT Suisse AG,Basel,4058,Rebgasse 20,,47.560477,7.594066,2
AVIA VOLT Suisse AG,Bergün Filisur,7482,Bahnhofstrasse,,46.673772,9.679204,2
AVIA VOLT Suisse AG,Bern,3000,Weltpoststrasse 5,,46.938898,7.475535,2
AVIA VOLT Suisse AG,Biel,2504,Solothurnstrasse 122,,47.15963,7.27843,2
AVIA VOLT Suisse AG,Brusio,7743,Borgo 320,,46.25815,10.12658,2
AVIA VOLT Suisse AG,Brusio,7744,Via Cantonale 61,,46.23379,10.14242,2
AVIA VOLT Suisse AG,Buchs,9470,A13,,47.14547804,9.50197956,2
AVIA VOLT Suisse AG,Buchs,9470,A13,,47.14637379,9.49980941,2
AVIA VOLT Suisse AG,Conthey,1964,Route Cantonale 4,,46.224699,7.295292,2
AVIA VOLT Suisse AG,Davos,7270,Wildenerstrasse,,46.788138,9.817101,2
AVIA VOLT Suisse AG,Dürnten,8632,Schulstrasse 6,,47.26593,8.8508,2
AVIA VOLT Suisse AG,Dürnten,8635,Rütistrasse 1,,47.27793,8.842717,2
AVIA VOLT Suisse AG,Egg,8132,Im Hanselmaa 2,,47.30428,8.69087,2
AVIA VOLT Suisse AG,Eich,6205,Eichhofstrasse,,47.15091,8.167439,2
AVIA VOLT Suisse AG,Elsau,8352,Im Tubental 4,,47.49952,8.78703,2
AVIA VOLT Suisse AG,Frauenfeld,8500,Sägereistrasse 5,,47.56383,8.90731,2
AVIA VOLT Suisse AG,Frauenfeld,8500,Zürcherstrasse 281,,47.56288442,8.9069309,2
AVIA VOLT Suisse AG,Grand-Lancy,1212,Route des Jeunes 10,,46.17931,6.127816,2
AVIA VOLT Suisse AG,Kaltbach,6212,Moosblick,,47.184949,8.054549,2
AVIA VOLT Suisse AG,Klosters,7250,Bahnhofstrasse 2,,46.86851,9.88065,2
AVIA VOLT Suisse AG,Klosters,7250,Gotschnastrasse 17,,46.86872,9.880678,2
AVIA VOLT Suisse AG,Klosters,7250,Landstrasse 95,,46.877787,9.880403,2
AVIA VOLT Suisse AG,Klosters,7250,Monbielstrasse,,46.86075,9.92258,2
AVIA VOLT Suisse AG,Klosters,7250,Schlappinstrasse,,46.88345,9.87597,2
AVIA VOLT Suisse AG,Kottwil,6217,Moosgasse,,47.162663,8.044492,2
AVIA VOLT Suisse AG,Kriens,6010,Luzernerstrasse 56,,47.034365,8.286833,2
AVIA VOLT Suisse AG,Küblis,7240,Hauptstrass 26,,46.91398,9.77259,2
AVIA VOLT Suisse AG,La Chaux-de-Fonds,2300,Boulevard des Éplatures 44,,47.08642,6.80007,2
AVIA VOLT Suisse AG,La Punt Chamues-ch,7522,Via Camünela 27,,46.57806,9.92678,2
AVIA VOLT Suisse AG,Landquart,7302,Bahnhofplatz 3A,,46.966898,9.555244,2
AVIA VOLT Suisse AG,Lucerne,6005,Langensandstrasse 23,,47.03759,8.32856,2
AVIA VOLT Suisse AG,Luzein,7246,Hauptstrasse,,46.969626,9.813476,2
AVIA VOLT Suisse AG,Luzern,6002,Seeburgstrasse 1,,47.05299,8.33933,2
AVIA VOLT Suisse AG,Malans,7208,Dorfplatz,,46.98213,9.57618,2
AVIA VOLT Suisse AG,Mettmenstetten,8932,Zürichstrasse 30,,47.24671588,8.46132251,2
AVIA VOLT Suisse AG,Meyrin,1217,Chemin de Riantbosson 19,,46.227139,6.085829,2
AVIA VOLT Suisse AG,Mulegns,7455,Veia Gelgia 85,,46.52419,9.62107,2
AVIA VOLT Suisse AG,"Mustér, Sumvitg",7180,Bahnhofstrasse,,46.70557,8.85682,2
AVIA VOLT Suisse AG,Neuhausen am Rheinfall,8212,Rheinweg 11,,47.69138,8.62318,2
AVIA VOLT Suisse AG,Niederhelfenschwil,9527,Oberdorf 10,,47.47397158,9.18345467,2
AVIA VOLT Suisse AG,Oberkirch,6208,Luzernstrasse 68,,47.154959,8.115458,2
AVIA VOLT Suisse AG,Oberkirch,6208,Müningen,,47.16213248,8.10768855,2
AVIA VOLT Suisse AG,Oberkirch,6208,Surenweidstrasse 2,,47.16054,8.114744,2
AVIA VOLT Suisse AG,Olten,4600,Swisscom Gasse 2,,47.350566,7.906899,2
AVIA VOLT Suisse AG,Pontresina,7504,Via da Mulin 7,,46.48917,9.9047,2
AVIA VOLT Suisse AG,Pontresina,7504,Via da la Staziun,,46.442922,9.978289,2
AVIA VOLT Suisse AG,"Pontresina, Samedan, Celerina",7504,Morteratsch 4,,46.494671,9.901187,2
AVIA VOLT Suisse AG,Poschiavo,7741,Via da Spultri 271,,46.32623,10.056416,2
AVIA VOLT Suisse AG,Poschiavo,7742,Burchin da Mez & Via da Mezz 178,,46.325609,10.05792,2
AVIA VOLT Suisse AG,Poschiavo,7746,Via Principale,,46.29085,10.0786,2
AVIA VOLT Suisse AG,Romanshorn,8590,Reckholdernstrasse 25,,47.57106,9.37182,2
AVIA VOLT Suisse AG,Russikon,8332,Madetswilersrasse 10,,47.39486,8.77694,2
AVIA VOLT Suisse AG,Saas,7247,Obergasse,,46.91122,9.80615,2
AVIA VOLT Suisse AG,Saint Moritz,7500,Via da Scola,,46.49834,9.8459,2
AVIA VOLT Suisse AG,Samedan,7503,Via Chantunela,,46.53451,9.87368,2
AVIA VOLT Suisse AG,Schenkon,6214,Parkstrasse 2,,47.179654,8.128155,2
AVIA VOLT Suisse AG,Scuol,7552,Vial da la Staziun,,46.79335,10.28593,2
AVIA VOLT Suisse AG,Serneus,7249,Badstrasse,,46.88976,9.84525,2
AVIA VOLT Suisse AG,Silvaplana,7513,Via vers Mulin 5,,46.45931,9.79572,2
AVIA VOLT Suisse AG,"Thusis, Rongellen, Cazis, Sils im Domleschg",7430,Marktwiesenstrasse,,46.6975,9.44065,2
AVIA VOLT Suisse AG,Uitikon Waldegg,8142,Neuhausstrasse 25,,47.36582,8.46482,2
AVIA VOLT Suisse AG,Uzwil,9242,Flawilerstrasse 5,,47.42775,9.12809,2
AVIA VOLT Suisse AG,Vella,7144,Grava 240 A,,46.71958,9.17138,2
AVIA VOLT Suisse AG,Wauwil,6242,Unterdorf,,47.184098,8.020127,2
AVIA VOLT Suisse AG,Winterthur,8401,Theaterstrasse 17,,47.50366,8.72792,2
AVIA VOLT Suisse AG,Winterthur,8406,In der Au 9,,47.48589778,8.70395197,2
AVIA VOLT Suisse AG,Winterthur,8408,Wässerwiesenstrasse 95,,47.514728,8.682405,2
AVIA VOLT Suisse AG,Zernez,7527,Crusch Plantaun 217,,46.654221,10.033648,2
AVIA VOLT Suisse AG,Zernez,7530,Plazza da la Staziun 4,,46.69759,10.09008,2
AVIA VOLT Suisse AG,Zizers,7205,Kantonsstrasse 152,,46.92769,9.56217,2
AVIA VOLT Suisse AG,Zuchwil,4528,Dorfackerstrasse 45,,47.201437,7.569541,2
AVIA VOLT Suisse AG,Zug,6300,Landis-Gyr-Strasse 3,,47.176067,8.514082,2
AVIA VOLT Suisse AG,Zurich,8005,Hardstrasse 201,,47.38643,8.51692,2
AVIA VOLT Suisse AG,Zurich,8008,Dufourstrasse 5,,47.364293,8.547588,2
AVIA VOLT Suisse AG,Zurich,8048,Flurstrasse 55,,47.384029,8.495175,2
AVIA VOLT Suisse AG,Bivio,7457,Julierstrasse 64,,46.46749,9.65046,1
AVIA VOLT Suisse AG,Degersheim,9113,Feldstrasse 42,,47.3706,9.19175,1
AVIA VOLT Suisse AG,Felben-Wellhausen,8552,Bahnhofstrasse 17 17,,47.57563,8.94494,1
AVIA VOLT Suisse AG,Glattfelden,8192,Spinnerei Lettenstrasse 2,,47.56972,8.47988,1
AVIA VOLT Suisse AG,Lauterbrunnen,3822,Zuben 462f,,46.598465,7.9088988,1
AVIA VOLT Suisse AG,Obersaxen-Mundaun,7134,Ober Misanenga 21,,46.750656,9.115715,1
AVIA VOLT Suisse AG,Obersaxen-Mundaun,7134,Valdunga 10,,46.753055,9.11174,1
AVIA VOLT Suisse AG,Schaffhausen,8207,Schweizersbildstrasse 35,,47.72096,8.64422,1
AVIA VOLT Suisse AG,Schwerzenbach,8603,Alte Bahnhofstrasse 24,,47.17095,8.85183,1
AVIA VOLT Suisse AG,Spreitenbach,8957,Industriestrasse 173a,,47.42769,8.36295,1
AVIA VOLT Suisse AG,St. Gallen,9000,Oberstrasse 137,,47.41415,9.35767,1
AVIA VOLT Suisse AG,Sursee,6210,Sappeurstrasse 2,,47.178935,8.107846,1
AVIA VOLT Suisse AG,Zernez,7530,Plaz 119,,46.69976,10.0956,1
Agrola,Pfäffikon,8808,Gwattstrasse 11,,47.200555,8.7930555,7
Agrola,Winterthur,8401,Theaterstrasse 15a,,47.50279500575,8.727358315767,2
Autosense,Gontenschwil,5728,Dorfstrasse,489,47.267727,8.147401,2
Chargepoint,Brienz,3855,2 Trachtlistrasse,,46.755036,8.036446,6
Chargepoint,Nyon,1260,293 Route de Saint-Cergue,,46.400561,6.218565,6
Chargepoint,Genève,1203,Rue de Bourgogne 25,,46.209711,6.1215,4
Chargepoint,Ibach SZ,6438,15A Gotthardstrasse,,47.01061,8.637528,4
Chargepoint,Zürich,8041,Tuchmacherstrasse 20,,47.341727,8.520291,4
Chargepoint,Chavornay,1373,23 Route de Saint-Marcel,,46.711354,6.559972,2
Chargepoint,Giubiasco,6512,7 Via Mondari,,46.170062,8.992435,2
Chargepoint,Immensee,6405,23 Artherstrasse vor Werkstatt,,47.091553,8.450229,2
Chargepoint,Nyon,1260,Route de Saint-Cergue 293,,46.40083,6.217929,2
Chargepoint,Nyon,1260,Rte de Saint-Cergue 293,,46.400764,6.218331,2
Chargepoint,Sameden,7503,Cho d'Punt 24,,46.52989471,9.87389955,2
Chargepoint,Steinhausen,6312,Sennweidstrasse 28 2x 22KW vor Showroom,,47.189057,8.484099,2
Chargepoint,Steinhausen,6312,28 Sennweidstrasse 50 KW Sennweidstrasse/Indu,,47.19153154,8.48084986,1
ENMOBILECHARGE,Kippel,,Schulhaus Kippel,,46.3991379,7.7715272,2
ENMOBILECHARGE,Steg,,Galdistrasse,,46.31473574298579,7.75365788458632,2
ENMOBILECHARGE,Wiler,,Talstation Wiler,,46.401819,7.777776,2
EVAEMOBILITAET,Altendorf,,Etzelstrasse,,47.1909399,8.829210699999999,2
EVAEMOBILITAET,Altendorf,,Oberdorfstrasse,,47.19029870773181,8.830255792500873,2
EWACHARGE,Göschenen,,Gotthardstrasse,,46.6677694,8.5875869,2
EWD Elektrizitätswerk Davos AG,Davos,7260,Bahnhofstrasse,nan,46.8135,9.84586,1
EWD Elektrizitätswerk Davos AG,Davos,7260,Bahnhofstrasse,nan,46.81352,9.84591,1
EWD Elektrizitätswerk Davos AG,Davos,7270,Promenade,40,46.79327,9.82131,1
EWD Elektrizitätswerk Davos AG,Davos,7270,Promenade,40,46.79336,9.82095,1
EWD Elektrizitätswerk Davos AG,Davos,7270,Talstrasse,49a,46.79975,9.83108,1
EWD Elektrizitätswerk Davos AG,Davos,7270,Talstrasse,49a,46.79978,9.83104,1
EWD Elektrizitätswerk Davos AG,Davos,7270,Talstrasse,49a,46.80008,9.83121,1
EWD Elektrizitätswerk Davos AG,Davos,7270,Talstrasse,49a,46.80013,9.83124,1
Electra,Spreitenbach,8957,Shopping Center,,47.421855,8.369587,12
Electra,Affoltern am Albis,8910,Moosbachstrasse 1,,47.271911,8.438941,7
Electra,Affoltern am Albis,8910,Moosbachstrasse 1,,47.272044,8.437776,7
Electra,Bern,3014,Mingerstrasse 12,,46.9592017,7.46922954,6
Electra,Rubigen,3113,Hunzigen 100,,46.891539,7.542147,6
Electra,Wädenswil,8820,Zugerstrasse 180,,47.235624,8.635601,6
Electra,Affoltern am Albis,8910,Obfelderstrasse 38,,47.272223,8.438791,4
Electra,Aubonne,1170,Pré-Neuf 14,,46.4769091,6.39483695,4
Electra,Bern,3008,Freiburgstrasse 144,,46.94323936,7.40575985,4
Electra,Collombey,1868,Z.A. Entre deux Fossaux 3,,46.266538,6.953528,4
Electra,Crissier,1023,Chem. de l'Esparcette 4,,46.552759,6.572204,4
Electra,Diepoldsau,9444,Tramstrasse 33,,47.3898,9.649034,4
Electra,Gebenstorf,5412,Wambisterstrasse 4,,47.48950111,8.24353608,4
Electra,Gland,1196,Rue des Tuillières 1,,46.422484,6.258075,4
Electra,Granges-Paccot,1763,"Route du Lac, 21",,46.8237878,7.15026468,4
Electra,Kilchberg,8802,Seestrasse 169,,47.32107527,8.55096615,4
Electra,Sion,1950,Route de Chippis 64C,,46.23060216,7.3845297,4
Electra,St Gallen,9000,Rorschacher Str. 152,,47.4313003,9.396489,4
Electra,Vilters-Wangs,7323,Bahnhofstrasse 58,,47.039263,9.436972,4
Electra,Zurich,8005,Schiffbaustrasse 11,,47.388954,8.517296,4
Electra,Zürich,8005,Förrlibuckstrasse 10,,47.39161,8.516509,4
Electra,Zürich,8008,Mühlebachstrasse 23 / 25,,47.364842,8.550477,4
Electra,Zürich,8057,Hofwiesenstrasse 135,,47.39914188,8.53300958,2
Elektrizitätswerk Herrliberg,Herrliberg,8704,Forchstrasse,16,47.284845,8.611227,1
Elektrizitätswerk Obwalden,Alpnach,6055,Bahnhofplatz,1.0,46.94119,8.275739999999999,1
Elektrizitätswerk Obwalden,Engelberg,6390,Bahnhof,nan,46.81965,8.40193,1
Elektrizitätswerk Obwalden,Giswil,6074,Gorgenstrasse,nan,46.83674,8.18736,1
Elektrizitätswerk Obwalden,Kerns,6064,Sarnerstrasse,5.0,46.90111,8.27367,1
Elektrizitätswerk Obwalden,Lungern,6078,Bahnhofstrasse,nan,46.78573,8.16329,1
Elektrizitätswerk Obwalden,Sachseln,6072,Bahnhofplatz,1.0,46.87077,8.23782,1
Elektrizitätswerk Obwalden,Sarnen,6060,Bahnhofplatz,7.0,46.89538,8.2476,1
Elektrizitätswerk der Stadt Zürich,Zürich,8001,Rämistrasse 22a,,47.368675,8.548148,75
Elektrizitätswerk der Stadt Zürich,Zürich,8001,Uraniastrasse 3,,47.373982,8.541,46
Elektrizitätswerk der Stadt Zürich,Zürich,8037,Tièchestrasse 99,,47.399139,8.519974,19
Elektrizitätswerk der Stadt Zürich,Zürich,8005,Giessereistrasse 18,,47.390377,8.518149,17
Elektrizitätswerk der Stadt Zürich,Zürich,8005,Sihlquai 41,,47.381523,8.537645,17
Elektrizitätswerk der Stadt Zürich,Zürich,8005,Giessereistrasse 18,,47.390553,8.517615,16
Elektrizitätswerk der Stadt Zürich,Zürich,8004,Bullingerstrasse 73,,47.381325,8.509692,15
Elektrizitätswerk der Stadt Zürich,Zürich,8005,Giessereistrasse 18,,47.390465,8.517886,15
Elektrizitätswerk der Stadt Zürich,Zürich,8005,Giessereistrasse 18,,47.390648,8.517337,15
Elektrizitätswerk der Stadt Zürich,Zürich,8008,Riesbachstrasse 7,,47.360069,8.553703,15
Elektrizitätswerk der Stadt Zürich,Zürich,8044,Vorderberg 3,,47.37624,8.558915,13
Elektrizitätswerk der Stadt Zürich,Zürich,8005,Limmatstrasse 310,,47.390026,8.524166,9
Elektrizitätswerk der Stadt Zürich,Zürich,8004,Molkenstrasse 9,,47.376511,8.527011,6
Elektrizitätswerk der Stadt Zürich,Zürich,8005,Ausstellungsstrasse 17,,47.38137878,8.53722049,6
Elektrizitätswerk der Stadt Zürich,Zürich,8038,Forellenweg 9,,47.33855619,8.53889522,6
Elektrizitätswerk der Stadt Zürich,Zürich,8050,Schwamendingenstrasse 31,,47.407742,8.548801,6
Elektrizitätswerk der Stadt Zürich,Zürich,8051,Ueberlandstrasse 444,,47.40466385,8.59419836,6
Elektrizitätswerk der Stadt Zürich,Cazis,7408,La Nicca Strasse 17,,46.730991,9.426774,4
Elektrizitätswerk der Stadt Zürich,Surses,7457,Julierstrasse 5,,46.470134,9.65024,4
Elektrizitätswerk der Stadt Zürich,Untervaz,7204,Laurenziusweg 2,,46.929578,9.538018,4
Elektrizitätswerk der Stadt Zürich,Zürich,8038,Mythenquai 320,,47.34881443,8.53401239,4
Elektrizitätswerk der Stadt Zürich,Zürich,8050,Thurgauerstrasse 40,,47.414871,8.552583,4
Elektrizitätswerk der Stadt Zürich,Bregaglia,7516,Strada Cantonale 322,,46.40036,9.695745,3
Elektrizitätswerk der Stadt Zürich,Bregaglia,7603,Strada Principale 107,,46.350399,9.619649,3
Elektrizitätswerk der Stadt Zürich,Bregaglia,7605,Strada Principale 109,,46.343742,9.592138,3
Elektrizitätswerk der Stadt Zürich,Bregaglia,7608,Strada Principale,,46.333096,9.515692,3
Elektrizitätswerk der Stadt Zürich,Zürich,8001,Hirschengraben 11,,47.371296,8.546901,3
Elektrizitätswerk der Stadt Zürich,Zürich,8001,Uraniastrasse 2a,,47.3745288,8.54063318,3
Elektrizitätswerk der Stadt Zürich,Zürich,8002,Allmendstrasse 13,,47.351803,8.525575,3
Elektrizitätswerk der Stadt Zürich,Zürich,8004,Seebahnstrasse 171,,47.37580478,8.51825031,3
Elektrizitätswerk der Stadt Zürich,Zürich,8005,Sihlquai 344,,47.39093612,8.52322911,3
Elektrizitätswerk der Stadt Zürich,Zürich,8006,Huttenstrasse 63,,47.37928553,8.55252622,3
Elektrizitätswerk der Stadt Zürich,Zürich,8032,Forchstrasse 95,,47.36233144,8.56032906,3
Elektrizitätswerk der Stadt Zürich,Zürich,8044,Klosterweg 34,,47.38678,8.575659,3
Elektrizitätswerk der Stadt Zürich,Zürich,8046,Wehntalerstrasse,,47.42034321,8.50363698,3
Elektrizitätswerk der Stadt Zürich,Zürich,8049,Am Wasser 55,,47.395588,8.505331,3
Elektrizitätswerk der Stadt Zürich,Zürich,8049,Limmattalstrasse 19a,,47.396347,8.511989,3
Elektrizitätswerk der Stadt Zürich,Zürich,8049,Singlistrasse 2,,47.403554,8.496149,3
Elektrizitätswerk der Stadt Zürich,Zürich,8050,Hagenholzstrasse 110,,47.41541,8.56333034,3
Elektrizitätswerk der Stadt Zürich,Zürich,8050,Tramstrasse 35,,47.408936,8.549044,3
Elektrizitätswerk der Stadt Zürich,Zürich,8051,Bocklerstrasse 10,,47.403572,8.57032,3
Elektrizitätswerk der Stadt Zürich,Zürich,8053,Witikonerstrasse 390,,47.359364,8.593211,3
Elektrizitätswerk der Stadt Zürich,Zürich,8055,Paul-Clairmont-Strasse 8,,47.36770271,8.49646082,3
Elektrizitätswerk der Stadt Zürich,Zürich,8057,Winterthurerstrasse 147,,47.394855,8.544949,3
Elektrizitätswerk der Stadt Zürich,Zürich,8064,Meierwiesenstrasse,,47.398457,8.494207,3
Elektrizitätswerk der Stadt Zürich,Bregaglia,7603,Strada Cantonale,,46.358342,9.643555,2
Elektrizitätswerk der Stadt Zürich,Bregaglia,7606,Via da Mezz,,46.336971,9.55396,2
Elektrizitätswerk der Stadt Zürich,Bregaglia,7610,Villaggio 18,,46.342537,9.535509,2
Elektrizitätswerk der Stadt Zürich,Cazis,7408,Italienische Strasse 49,,46.722858,9.4284,2
Elektrizitätswerk der Stadt Zürich,Genf,1202,Rue de la Servette 93,,46.213551,6.129675,2
Elektrizitätswerk der Stadt Zürich,Zürich,8008,Lenggstrasse 30,,47.351696,8.57127,2
Elektrizitätswerk der Stadt Zürich,Zürich,8047,Goldackerweg 10,,47.371455,8.48692,2
Energie 360 Grad AG,Zizers,7205,Tardisstrasse 199,,46.958983,9.553837,30
Energie 360 Grad AG,Morbio Inferiore,6834,Viale Serfontana,,45.844436,9.015651,18
Energie 360 Grad AG,Neuendorf,4623,Industriestrasse 30,,47.3123,7.788167,16
Energie 360 Grad AG,Basel,4056,Fabrikstrasse 2,,47.571522,7.581223,14
Energie 360 Grad AG,Liestal,4410,Mühlemattstrasse 26,,47.488192,7.731237,14
Energie 360 Grad AG,Weinfelden,8570,Amriswilerstrasse 12,,47.567907,9.111118,12
Energie 360 Grad AG,Spreitenbach,8957,Türliackerstrasse 4,,47.424179,8.367449,11
Energie 360 Grad AG,Bachenbülach,8184,Grabenstrasse 6,,47.50658088,8.54136744,10
Energie 360 Grad AG,Volketswil,8604,Industriestrasse 1,,47.382053,8.669478,10
Energie 360 Grad AG,Basel,4056,Fabrikstrasse 2,,47.574703,7.577008,8
Energie 360 Grad AG,Dübendorf,8600,Hoffnigstrasse 1,,47.39595,8.597886,8
Energie 360 Grad AG,Emmen,6020,Fadenstrasse 20,,47.070999,8.277936,8
Energie 360 Grad AG,Laufen-Uhwiesen,8447,Laufen am Rheinfall,,47.674774,8.614491,8
Energie 360 Grad AG,Neuenburg,2000,Rue de la Pierre-à-Mazel 10,,46.996159,6.94604,8
Energie 360 Grad AG,Thal,9423,Flughafenstrasse 11,,47.488083,9.553374,8
Energie 360 Grad AG,Würenlingen,5303,Kuhgässlistrasse 7,,47.525555,8.244166,8
Energie 360 Grad AG,Zürich,8048,Baslerstrasse 50,,47.386292,8.497598,8
Energie 360 Grad AG,Regensdorf,8105,Im Zentrum 1,,47.43225989,8.46826343,7
Energie 360 Grad AG,Winterthur,8404,Rudolf-Diesel-Strasse 19,,47.494572,8.757342,7
Energie 360 Grad AG,Affoltern am Albis,8910,Moosbachstrasse 13,,47.27528,8.438655,6
Energie 360 Grad AG,Dielsdorf,8157,Niederhaslistrasse 5,,47.48388309,8.46660687,6
Energie 360 Grad AG,Egerkingen,4622,Hausimollstrasse 3,,47.31831809,7.80371742,6
Energie 360 Grad AG,Feuerthalen,8245,Schützenstrasse 30,,47.69024593,8.64756554,6
Energie 360 Grad AG,Haute-Sorne,2854,Rue de l'Abbé Monnin 81,,47.33762384,7.25310553,6
Energie 360 Grad AG,Jongny,1805,Chemin de la Fontaine 2,,46.478161,6.842403,6
Energie 360 Grad AG,Kaiseraugst,4303,Junkholzweg 5,,47.537727,7.731703,6
Energie 360 Grad AG,Kreuzlingen,8280,Sonnenstrasse 16,,47.650871,9.172223,6
Energie 360 Grad AG,Langnau im Emmental,3550,Sägestrasse 37,,46.940861,7.77839,6
Energie 360 Grad AG,Prilly,1008,Rue de Cossonay 28,,46.534435,6.607065,6
Energie 360 Grad AG,Renens,1020,Place du Marché 1,,46.538311,6.581651,6
Energie 360 Grad AG,Schwyz,6423,Steinbislin 7,,47.033115,8.627939,6
Energie 360 Grad AG,Sennwald,9469,Rüti,,47.211971,9.494612,6
Energie 360 Grad AG,Tenero-Contra,6598,Via Brere 8,,46.17474,8.85418,6
Energie 360 Grad AG,Vaz/Obervaz,7078,Voa Sporz 3,,46.728775,9.555194,6
Energie 360 Grad AG,Villars-sur-Glâne,1752,Route de Moncor 1,,46.797699,7.12389,6
Energie 360 Grad AG,Wettingen,5430,Jurastrasse 42,,47.458225,8.329137,6
Energie 360 Grad AG,Aarburg,4665,Bernstrasse,,47.31242118,7.91444497,5
Energie 360 Grad AG,Murten,3280,Löwenberg 54,,46.937286,7.142343,5
Energie 360 Grad AG,Affoltern am Albis,8910,Obfelderstrasse 19,,47.27319,8.441932,4
Energie 360 Grad AG,Allaman,1165,Route de la Gare 10,,46.477085,6.402489,4
Energie 360 Grad AG,Allmendingen,3112,Vordermärchligenweg 1a,,46.919395,7.514278,4
Energie 360 Grad AG,Allschwil,4123,Binningerstrasse 74,,47.547684,7.54556,4
Energie 360 Grad AG,Appenzell,9050,Zielstrasse 13,,47.333798,9.406725,4
Energie 360 Grad AG,Arth,6410,Jägerweg,,47.052995,8.557673,4
Energie 360 Grad AG,Basel,4058,Clarastrasse 41,,47.562988,7.596783,4
Energie 360 Grad AG,Biasca,6710,Via A. Giovannini 32,,46.357987,8.971354,4
Energie 360 Grad AG,Biel/Bienne,2532,Hauptstrasse 247a,,47.138561,7.213862,4
Energie 360 Grad AG,Canobbio,6952,Via Sonvico 5,,46.028881,8.96781,4
Energie 360 Grad AG,Conthey,1964,Rue de la Madeleine 2,,46.223717,7.29489,4
Energie 360 Grad AG,Courroux,2822,Rue du 23-Juin 76,,47.360268,7.382443,4
Energie 360 Grad AG,Crissier,1023,Chemin du Saugy 1,,46.545277,6.569754,4
Energie 360 Grad AG,Dietikon,8953,Silbernstrasse 9,,47.41795,8.39299,4
Energie 360 Grad AG,Dietlikon,8305,Industriestrasse 28,,47.412441,8.618246,4
Energie 360 Grad AG,Domat/Ems,7013,Via Nova 96,,46.8369689,9.45323015,4
Energie 360 Grad AG,Dübendorf,8600,Am Stadtrand 1,,47.397541,8.597478,4
Energie 360 Grad AG,Embrach,8424,Hardhofstrasse 10,,47.516306,8.595596,4
Energie 360 Grad AG,Freienbach,8808,Churerstrasse 133,,47.202339,8.788383,4
Energie 360 Grad AG,Fully,1926,Chemin de la Maraîche 33,,46.150787,7.145673,4
Energie 360 Grad AG,Gossau,9200,Sankt Gallerstrasse 75,,47.417046,9.250464,4
Energie 360 Grad AG,Grenchen,2540,Solothurnstrasse 20,,47.191872,7.398091,4
Energie 360 Grad AG,La Chaux-de-Fonds,2300,Avenue Léopold-Robert 151,,47.09383,6.816589,4
Energie 360 Grad AG,Lausanne,1003,Rue Caroline 6,,46.520992,6.637571,4
Energie 360 Grad AG,Lausanne,1007,Avenue Marc-Dufour 4,,46.520149,6.6212,4
Energie 360 Grad AG,Lyss,3250,Beundengasse 2,,47.072765,7.301832,4
Energie 360 Grad AG,Martigny,1920,Rue du Simplon 37,,46.107081,7.086243,4
Energie 360 Grad AG,Meggen,6045,Am Dorfplatz 3,,47.04665,8.374302,4
Energie 360 Grad AG,Meilen,8706,General-Wille-Strasse 201,,47.277065,8.621207,4
Energie 360 Grad AG,Meyrin,1217,Rue des Entreprises 14,,46.226997,6.074167,4
Energie 360 Grad AG,Morges,1110,Avenue de la Gottaz 28,,46.506592,6.485001,4
Energie 360 Grad AG,Muralto,6600,Via San Gottardo 8,,46.173599,8.80439,4
Energie 360 Grad AG,Muttenz,4132,Brühlweg 8,,47.527271,7.6468,4
Energie 360 Grad AG,Oberburg,3414,Emmentalstrasse 49,,47.036587,7.630376,4
Energie 360 Grad AG,Oberwil,4104,Bahnhofstrasse 1,,47.51504376,7.5584835,4
Energie 360 Grad AG,Oberwil,4104,Mühlemattstrasse 34,,47.508007,7.553318,4
Energie 360 Grad AG,Prilly,1008,Chemin du Viaduc 1,,46.527096,6.603096,4
Energie 360 Grad AG,Rennaz,1847,Route du Pré-de-la-Croix 18,,46.3843,6.923875,4
Energie 360 Grad AG,Rickenbach,9532,Breitestrasse 4,,47.446201,9.052896,4
Energie 360 Grad AG,Riddes,1908,Chemin des Babioux,,46.16609713,7.20931087,4
Energie 360 Grad AG,Risch,6343,Suurstoffi 17,,47.144787,8.434375,4
Energie 360 Grad AG,Sankt Gallen,9016,Favrestrasse 6,,47.43861895,9.41403196,4
Energie 360 Grad AG,Siders,3960,Route de Sion 115,,46.280438,7.510292,4
Energie 360 Grad AG,Solothurn,4500,Weissensteinstrasse 21,,47.210606,7.527744,4
Energie 360 Grad AG,Stans,6370,Rieden 5,,46.965267,8.38134,4
Energie 360 Grad AG,Urtenen-Schönbühl,3322,Sandstrasse 8,,47.01804,7.501934,4
Energie 360 Grad AG,Uster,8610,Zürichstrasse 14,,47.349831,8.715617,4
Energie 360 Grad AG,Vich,1267,Chemin de la Bichette 4,,46.423946,6.254927,4
Energie 360 Grad AG,Villeneuve,1844,Zone Industrielle D 117,,46.38686,6.930111,4
Energie 360 Grad AG,Volketswil,8604,Grabenwisstrasse 5,,47.383366,8.668572,4
Energie 360 Grad AG,Volketswil,8604,Im Zentrum 16,,47.388527,8.681473,4
Energie 360 Grad AG,Volketswil,8604,Industriestrasse 1,,47.382679,8.667045,4
Energie 360 Grad AG,Winterthur,8400,Robert-Sulzer-Gasse 4,,47.496964,8.716387,4
Energie 360 Grad AG,Winterthur,8400,Strickerstrasse 3,,47.499199,8.7206,4
Energie 360 Grad AG,Winterthur,8404,Rudolf-Diesel-Strasse 19,,47.495411,8.757883,4
Energie 360 Grad AG,Worb,3076,Bärenplatz 4,,46.929424,7.561634,4
Energie 360 Grad AG,Zug,6300,Industriestrasse 12,,47.173004,8.517534,4
Energie 360 Grad AG,Zürich,8050,Schulstrasse 44,,47.410488,8.543701,4
Energie 360 Grad AG,Bachenbülach,8184,Bramenstrasse 2,,47.505047,8.540481,3
Energie 360 Grad AG,Chur,7000,Richtstrasse,,46.846127,9.512382,3
Energie 360 Grad AG,Gerlafingen,4563,Hausmattstrasse 3,,47.171513,7.57293,3
Energie 360 Grad AG,Muri,5630,Luzernerstrasse 13,,47.272536,8.342407,3
Energie 360 Grad AG,Rümlang,8153,Flughofstrasse 63,,47.451874,8.538593,3
Energie 360 Grad AG,Schlieren,8952,Wiesenstrasse 10a,,47.400146,8.443898,3
Energie 360 Grad AG,Spreitenbach,8957,Türliackerstrasse 4,,47.42408774,8.36778765,3
Energie 360 Grad AG,Volketswil,8604,In der Au 6,,47.39011,8.689337,3
Energie 360 Grad AG,Weinfelden,8570,Walkestrasse 40,,47.564536,9.098192,3
Energie 360 Grad AG,Winterthur,8400,Haldenstrasse 34,,47.506599,8.72983,3
Energie 360 Grad AG,Zollikon,8125,Sennhofweg 23,,47.346355,8.607442,3
Energie 360 Grad AG,Zürich,8008,Zollikerstrasse,,47.364208,8.554646,3
Energie 360 Grad AG,Aarberg,3270,Bahnhofstrasse 11,,47.042034,7.275416,2
Energie 360 Grad AG,Adligenswil,6043,Im Zentrum 3,,47.072174,8.364586,2
Energie 360 Grad AG,Adliswil,8134,Florastrasse 9,,47.311062,8.524396,2
Energie 360 Grad AG,Adliswil,8134,Wachtstrasse / Albisstrasse 8134 Adliswil CH,,47.310296,8.525859,2
Energie 360 Grad AG,Adliswil,8134,Zelgstrasse 80,,47.313152,8.520235,2
Energie 360 Grad AG,Adliswil,8134,Zürichstrasse 8,,47.312561,8.528044,2
Energie 360 Grad AG,Affoltern am Albis,8910,Obstgartenstrasse 5,,47.274513,8.443481,2
Energie 360 Grad AG,Altstätten,9450,Heidenerstrasse 28,,47.379578,9.540718,2
Energie 360 Grad AG,Amriswil,8580,Kirchstrasse 11,,47.547328,9.298295,2
Energie 360 Grad AG,Arbon,9320,Textilstrasse 1,,47.506699,9.431934,2
Energie 360 Grad AG,Bachenbülach,8184,Grabenstrasse 2,,47.504536,8.542372,2
Energie 360 Grad AG,Baden,5405,Im Langacker 17,,47.457138,8.286589,2
Energie 360 Grad AG,Balgach,9435,Balgacherstrasse 203,,47.409641,9.62501,2
Energie 360 Grad AG,Basel,4051,Centralbahnplatz 3,,47.547298,7.592312,2
Energie 360 Grad AG,Basel,4052,Singerstrasse 12,,47.544926,7.604943,2
Energie 360 Grad AG,Basel,4053,Güterstrasse 115,,47.545921,7.588448,2
Energie 360 Grad AG,Basel,4053,Güterstrasse 190,,47.543285,7.593103,2
Energie 360 Grad AG,Bellach,4512,Grederstrasse 35,,47.211884,7.512683,2
Energie 360 Grad AG,Bern,3027,Eymattstrasse 21,,46.951302,7.394923,2
Energie 360 Grad AG,Bern,3027,Kasparstrasse 7,,46.950699,7.392739,2
Energie 360 Grad AG,Bettlach,2544,Bischmattstrasse 9,,47.196668,7.430873,2
Energie 360 Grad AG,Bex,1880,Route des Pépinières 14,,46.248646,7.00439,2
Energie 360 Grad AG,Biberist,4562,Hauptstrasse 44,,47.181572,7.563441,2
Energie 360 Grad AG,Biel/Bienne,2502,Nidaugasse 35,,47.139088,7.247367,2
Energie 360 Grad AG,Biel/Bienne,2504,Grenchenstrasse 6,,47.15943722,7.29164911,2
Energie 360 Grad AG,Bischofszell,9220,Niederbürerstrasse 5,,47.489857,9.237397,2
Energie 360 Grad AG,Bottmingen,4103,Baslerstrasse 43,,47.526608,7.572241,2
Energie 360 Grad AG,Brig-Glis,3900,Kantonsstrasse 424,,46.305504,7.949363,2
Energie 360 Grad AG,Brugg,5200,Neumarkt,,47.482197,8.208516,2
Energie 360 Grad AG,Bubendorf,4416,Gewerbestrasse 4,,47.454136,7.736018,2
Energie 360 Grad AG,Bulle,1630,Route de Riaz 50,,46.625519,7.060534,2
Energie 360 Grad AG,Bulle,1630,Route de Riaz 70,,46.626629,7.059824,2
Energie 360 Grad AG,Burgdorf,3400,Sägegasse 14,,47.05724,7.629431,2
Energie 360 Grad AG,Böttstein,5314,Hauptstrasse 6,,47.572678,8.248671,2
Energie 360 Grad AG,Bürglen,8575,Bahnhofstrasse 13,,47.548581,9.151687,2
Energie 360 Grad AG,Cham,6330,Lorzenparkstrasse 12,,47.19186,8.45531,2
Energie 360 Grad AG,Château-d'Oex,1660,Route de la Gare 8,,46.473888,7.133761,2
Energie 360 Grad AG,Châtel-Saint-Denis,1618,Chemin des Chardonnerets 14,,46.523071,6.897464,2
Energie 360 Grad AG,Conthey,1964,Rue de la Madeleine 2 1964 Conthey CH,,46.215221,7.298957,2
Energie 360 Grad AG,Davos,7270,Bahnhofstrasse Platz,,46.7924,9.82034,2
Energie 360 Grad AG,Dietikon,8953,Silbernstrasse 1,,47.414089,8.399058,2
Energie 360 Grad AG,Dietlikon,8305,Industriestrasse 33,,47.411621,8.618055,2
Energie 360 Grad AG,Einsiedeln,8840,Zürichstrasse 44,,47.133064,8.745069,2
Energie 360 Grad AG,Emmen,6020,Fichtenstrasse 1,,47.073555,8.290793,2
Energie 360 Grad AG,Erlinsbach,5015,Stüsslingerstrasse 12,,47.398541,8.006481,2
Energie 360 Grad AG,Eschenbach,8735,Schuttstrasse,,47.285046,8.995952,2
Energie 360 Grad AG,Etoy,1163,Route de la Chenalette 1,,46.474136,6.42769,2
Energie 360 Grad AG,Fehraltorf,8320,Kempttalstrasse 65,,47.388119,8.752624,2
Energie 360 Grad AG,Feuerthalen,8245,Schützenstrasse 30,,47.69077642,8.64769153,2
Energie 360 Grad AG,Frauenfeld,8500,Zürcherstrasse 138,,47.55394,8.89545,2
Energie 360 Grad AG,Freiburg,1700,Allée des Grand-Places 1,,46.803067,7.155236,2
Energie 360 Grad AG,Frenkendorf,4402,Bahnhofstrasse 22,,47.501896,7.721655,2
Energie 360 Grad AG,Frick,5070,Hauptstrasse 37,,47.509453,8.019946,2
Energie 360 Grad AG,Gambarogno,6572,Via Ganne 5,,46.14996,8.890699,2
Energie 360 Grad AG,Gelterkinden,4460,Allmend 3,,47.464714,7.852388,2
Energie 360 Grad AG,Givisiez,1762,Route du Tir-Fédéral 12,,46.81752,7.128883,2
Energie 360 Grad AG,Glarus,8754,Molliserstrasse 41,,47.067345,9.058545,2
Energie 360 Grad AG,Gossau,9200,Wilerstrasse 73,,47.418152,9.235892,2
Energie 360 Grad AG,Granges-Paccot,1763,Route d'Agy 1,,46.820377,7.153166,2
Energie 360 Grad AG,Heimberg,3627,Blümlisalpstrasse 61,,46.780582,7.609362,2
Energie 360 Grad AG,Heimberg,3627,Stockhornstrasse 19,,46.788418,7.605701,2
Energie 360 Grad AG,Herzogenbuchsee,3360,Bernstrasse 43,,47.186112,7.70383,2
Energie 360 Grad AG,Hinwil,8340,Wässeristrasse 19,,47.304321,8.824393,2
Energie 360 Grad AG,Horgen,8810,Bahnhofstrasse 10,,47.260902,8.597509,2
Energie 360 Grad AG,Ilanz/Glion,7130,Via Crappa Grossa 24,,46.774509,9.192392,2
Energie 360 Grad AG,Kaiseraugst,4303,Rinaustrasse 284,,47.541102,7.74208,2
Energie 360 Grad AG,Kirchberg,9533,Florastrasse 2,,47.409582,9.038973,2
Energie 360 Grad AG,Kleinandelfingen,8451,Schaffhauserstrasse 62,,47.602776,8.68828,2
Energie 360 Grad AG,Klosters,7250,Bahnhofstrasse 10,,46.86797,9.88199,2
Energie 360 Grad AG,Kloten,8302,Breitistrasse 23,,47.448002,8.584,2
Energie 360 Grad AG,Kreuzlingen,8280,Hauptstrasse 63,,47.647968,9.176094,2
Energie 360 Grad AG,Kriens,6010,Nidfeldstrasse 2,,47.029209,8.295646,2
Energie 360 Grad AG,Köniz,3097,Kirchstrasse 4,,46.930302,7.427962,2
Energie 360 Grad AG,Köniz,3097,Kirchstrasse 4,,46.930386,7.428522,2
Energie 360 Grad AG,Köniz,3098,Stapfenstrasse 5,,46.922855,7.415916,2
Energie 360 Grad AG,Küsnacht,8700,Seestrasse 39a,,47.327273,8.574935,2
Energie 360 Grad AG,Lancy,1213,Route de Chancy 71,,46.186688,6.111722,2
Energie 360 Grad AG,Landquart,7302,Tardisstrasse 20a,,46.965962,9.553084,2
Energie 360 Grad AG,Landquart,7302,Werkstättestrasse 5,,46.96669,9.55616,2
Energie 360 Grad AG,Langenthal,4900,Gaswerkstrasse 78,,47.232597,7.792266,2
Energie 360 Grad AG,Langenthal,4900,Sankt Urbanstrasse 3,,47.212929,7.7909,2
Energie 360 Grad AG,Langnau am Albis,8135,Albisstrasse 4,,47.290992,8.527938,2
Energie 360 Grad AG,Laténa,2072,Route de Neuchâtel 4,,47.013424,6.984644,2
Energie 360 Grad AG,Le Vaud,1261,Route du Bois Laurent 1,,46.478554,6.245114,2
Energie 360 Grad AG,Lenzburg,5600,Augustin Keller-Strasse 31,,47.39006,8.17077,2
Energie 360 Grad AG,Lenzburg,5600,Kronenplatz 20,,47.38795,8.181435,2
Energie 360 Grad AG,Lenzburg,5600,Sägestrasse 53,,47.392475,8.176,2
Energie 360 Grad AG,Lindau,8310,Kemptpark 1,,47.451305,8.704472,2
Energie 360 Grad AG,Lützelflüh,3432,Bahnhofstrasse 51,,47.005478,7.680112,2
Energie 360 Grad AG,Matran,1753,Route du Bois 7,,46.77977456,7.08911206,2
Energie 360 Grad AG,Meilen,8706,Dorfstrasse 16,,47.270007,8.638705,2
Energie 360 Grad AG,Mellingen,5507,Jurastrasse 6,,47.41287353,8.26899255,2
Energie 360 Grad AG,Mettmenstetten,8932,Albisstrasse 2,,47.243492,8.463691,2
Energie 360 Grad AG,Milvignes,2013,Route de Sombacour 21a,,46.965889,6.8542,2
Energie 360 Grad AG,Montagny-près-Yverdon,1442,En Chamard 35,,46.789963,6.622995,2
Energie 360 Grad AG,Moosseedorf,3302,Lochackerweg 5,,47.01273,7.470005,2
Energie 360 Grad AG,Moudon,1510,Avenue de Cerjat 2a,,46.668366,6.800448,2
Energie 360 Grad AG,Muri,5630,Seetalstrasse 1,,47.272793,8.340997,2
Energie 360 Grad AG,Muttenz,4132,Sankt Jakobs-Strasse 155,,47.535523,7.62731,2
Energie 360 Grad AG,Männedorf,8708,Bergstrasse,,47.251747,8.69447,2
Energie 360 Grad AG,Möhlin,4313,Hauptstrasse 9,,47.563408,7.841669,2
Energie 360 Grad AG,Oberengstringen,8102,Zürcherstrasse,,47.408802,8.461604,2
Energie 360 Grad AG,Oberwil,4104,Bahnhofstrasse 1,,47.515026,7.558895,2
Energie 360 Grad AG,Oftringen,4665,Bernstrasse,,47.312519,7.911352,2
Energie 360 Grad AG,Olten,4600,Louis-Giroud-Strasse 26,,47.345749,7.908608,2
Energie 360 Grad AG,Ormont-Dessus,1865,Route du Pillon 58,,46.35384,7.150116,2
Energie 360 Grad AG,Oron,1610,Route de Lausanne 31,,46.5704,6.819842,2
Energie 360 Grad AG,Ostermundigen,3072,Bahnhofstrasse 3,,46.955254,7.484269,2
Energie 360 Grad AG,Payerne,1530,Place Général Guisan 7,,46.822201,6.94219,2
Energie 360 Grad AG,Pfäffikon,8330,Baumenstrasse,,47.35965,8.786746,2
Energie 360 Grad AG,Pfäffikon,8330,Mettlenstrasse 7,,47.362633,8.791954,2
Energie 360 Grad AG,Pfäffikon,8330,Schanzweg 2,,47.364883,8.768452,2
Energie 360 Grad AG,Pfäffikon,8330,Seestrasse 15,,47.366699,8.781923,2
Energie 360 Grad AG,Pfäffikon,8330,Speerstrasse 15,,47.369522,8.770798,2
Energie 360 Grad AG,Pratteln,4133,Grüssenweg 9,,47.526173,7.689684,2
Energie 360 Grad AG,Pratteln,4133,Zurlindenstrasse 1,,47.525898,7.69709,2
Energie 360 Grad AG,Pruntrut,2900,Faubourg Saint-Germain 3,,47.417503,7.077678,2
Energie 360 Grad AG,Rapperswil-Jona,8640,Oberseestrasse,,47.224354,8.822551,2
Energie 360 Grad AG,Regensdorf,8105,Zentrum 1,,47.432046,8.468493,2
Energie 360 Grad AG,Reinach,4153,Austrasse 1,,47.494034,7.593203,2
Energie 360 Grad AG,Reinach,5734,Obere Stumpenbachstrasse 10,,47.25206,8.182204,2
Energie 360 Grad AG,Rheinau,8462,Chorbstrasse 10,,47.643887,8.60593,2
Energie 360 Grad AG,Riehen,4125,Rauracherstrasse 33,,47.57049745,7.63359017,2
Energie 360 Grad AG,Riehen,4125,Schmiedgasse 7,,47.585239,7.65058,2
Energie 360 Grad AG,Risch,6343,Lettenstrasse 9,,47.146851,8.43239,2
Energie 360 Grad AG,Risch,6343,Suurstoffi 18,,47.144363,8.438942,2
Energie 360 Grad AG,Romont,1680,Route de la Belle-Croix 18,,46.692921,6.91341,2
Energie 360 Grad AG,Roveredo,6535,Piazéta 65,,46.237484,9.126901,2
Energie 360 Grad AG,Rupperswil,5102,Aarauerstrasse 50,,47.404652,8.11953,2
Energie 360 Grad AG,Rüti,8630,Bandwiesstrasse 11,,47.256775,8.850527,2
Energie 360 Grad AG,Saignelégier,2350,Rue des Rangiers 4,,47.257122,7.000188,2
Energie 360 Grad AG,Samedan,7503,Crappun 1,,46.532356,9.87083,2
Energie 360 Grad AG,Sankt Gallen,9016,Schuppisstrasse 11,,47.441376,9.417803,2
Energie 360 Grad AG,Sankt Immer,2610,Place du 16 Mars 1,,47.153473,6.999944,2
Energie 360 Grad AG,Sankt Moritz,7500,Via dal Bagn 18,,46.490078,9.83505,2
Energie 360 Grad AG,Satigny,1242,Rue De-Turrettin 2,,46.217278,6.065946,2
Energie 360 Grad AG,Savigny,1073,Route de Mollie-Margot 7a,,46.54052625,6.73172424,2
Energie 360 Grad AG,Schönenwerd,5012,Gösgerstrasse 5,,47.373402,8.001434,2
Energie 360 Grad AG,Seegräben,8607,Rutschbergstrasse 10,,47.343236,8.770359,2
Energie 360 Grad AG,Sissach,4450,Hauptstrasse 48,,47.46376,7.813936,2
Energie 360 Grad AG,Sitten,1958,Rue du Pont 9,,46.253541,7.415413,2
Energie 360 Grad AG,Thun,3600,Burgstrasse 18,,46.76129,7.629777,2
Energie 360 Grad AG,Thun,3604,Schulstrasse 32,,46.740398,7.622261,2
Energie 360 Grad AG,Tramelan,2720,Rue Haute 11,,47.223537,7.099114,2
Energie 360 Grad AG,Tägerwilen,8274,Bahnhofstrasse 6,,47.656418,9.13236,2
Energie 360 Grad AG,Uzwil,9240,Wattstrasse 1,,47.435684,9.139247,2
Energie 360 Grad AG,Val-de-Travers,2108,Près-de-la-Porte,,46.921955,6.624749,2
Energie 360 Grad AG,Valbroye,1523,Chemin des Échelles,,46.761864,6.890436,2
Energie 360 Grad AG,Vitznau,6354,Seestrasse 64,,47.009132,8.483246,2
Energie 360 Grad AG,Vétroz,1964,Route des Rottes 1,,46.22212674,7.29580741,2
Energie 360 Grad AG,Wattwil,9630,Grüenaustrasse 4,,47.303486,9.085915,2
Energie 360 Grad AG,Weinfelden,8570,Fichtenstrasse 18,,47.566559,9.09595,2
Energie 360 Grad AG,Wettingen,5430,Landstrasse 99,,47.465958,8.327549,2
Energie 360 Grad AG,Wetzikon,8623,Motorenstrasse 2,,47.333511,8.805299,2
Energie 360 Grad AG,Wilderswil,3812,Mittelweg 1,,46.666466,7.871667,2
Energie 360 Grad AG,Willisau,6130,Ettiswilerstrasse 46,,47.131081,7.998948,2
Energie 360 Grad AG,Windisch,5210,Klosterzelgstrasse 1b,,47.478924,8.215148,2
Energie 360 Grad AG,Winterthur,8400,Brunngasse 6,,47.505199,8.725211,2
Energie 360 Grad AG,Winterthur,8400,Haldenstrasse 34,,47.506332,8.729478,2
Energie 360 Grad AG,Winterthur,8400,Lagerhausstrasse 2,,47.497515,8.726159,2
Energie 360 Grad AG,Winterthur,8400,Rundstrasse 1,,47.506104,8.726747,2
Energie 360 Grad AG,Winterthur,8400,Zur Kesselschmiede 37,,47.494008,8.716601,2
Energie 360 Grad AG,Winterthur,8405,Kanzleistrasse 23,,47.484711,8.763303,2
Energie 360 Grad AG,Winterthur,8408,Wülflingerstrasse 271,,47.509972,8.69187,2
Energie 360 Grad AG,Winterthur,8409,Stegackerstrasse 22,,47.50222,8.774618,2
Energie 360 Grad AG,Würenlos,5436,Poststrasse 1,,47.443062,8.36261,2
Energie 360 Grad AG,Zernez,7530,Il Fuorn,,46.664291,10.210297,2
Energie 360 Grad AG,Zofingen,4800,Aarburgerstrasse 4,,47.292351,7.943013,2
Energie 360 Grad AG,Zollikofen,3052,Märitgasse 1,,46.997372,7.458359,2
Energie 360 Grad AG,Zug,6300,Industriestrasse 14,,47.172073,8.518586,2
Energie 360 Grad AG,Zürich,8005,Giessereistrasse 9,,47.389763,8.518115,2
Energie 360 Grad AG,Zürich,8008,Lengghalde 2,,47.35194,8.573595,2
Energie 360 Grad AG,Zürich,8032,Juliastrasse 5,,47.36485474,8.55703593,2
Energie 360 Grad AG,Zürich,8048,Aargauerstrasse 182,,47.392277,8.493475,2
Energie 360 Grad AG,Zürich,8048,Buckhauserstrasse 34,,47.383709,8.492468,2
Energie 360 Grad AG,Davos,7270,Grüenistrasse 17,,46.79026225,9.81221341,1
Energie 360 Grad AG,Huttwil,4950,Hohlenstrasse 24,,47.117802,7.842738,1
Energie 360 Grad AG,Oberkirch,6208,Länggasse 2,,47.151348,8.11552,1
Energie 360 Grad AG,Oberwil,4104,Mühlemattstrasse 22,,47.509663,7.553722,1
Energie 360 Grad AG,Oetwil am See,8618,Sigmundweg,,47.26905237,8.71853381,1
Energie 360 Grad AG,Rheinfelden,4310,Roberstenstrasse 31,,47.557167,7.799008,1
Energie 360 Grad AG,Rüdtligen-Alchenflüh,3422,Bernstrasse 52,,47.077644,7.573743,1
Energie 360 Grad AG,Zürich,8004,Hohlstrasse 100,,47.379578,8.52306,1
Energie 360 Grad AG,Zürich,8005,Pfingstweidstrasse 102,,47.390932,8.509541,1
Energie 360 Grad AG,Zürich,8046,Lerchenhalde 75,,47.41618,8.506867,1
Fastned,Zürich,8046,"A4, 8046 Zürich",n/a,47.430721,8.511504,8
Fastned,Chiggiogna,6764,E35 ,n/a,46.44449,8.832924,4
Fastned,Chironico,6747,E35 ,n/a,46.447592,8.829626,4
Fastned,Gurbrü,3208,Mühlegässli 20B,n/a,46.961216,7.211051,4
Fastned,Humlikon,8457,A4 4,n/a,47.57492,8.684588,4
Fastned,Kloten,8302,Talacherstrasse,n/a,47.462193,8.578673,4
Fastned,Landquart,7205,"Apfelwuhr Süd, Highway 13",n/a,46.957193,9.547564,4
Fastned,Lenzburg,5600,Rastplatz Lenzburg A1,n/a,47.392556,8.160158,4
Fastned,Montreux,1822,"Le Pertit Lac, A9",n/a,46.437896,6.916084,4
Fastned,Montreux,1822,"Le Pertit Montagne, A9",n/a,46.43934,6.916162,4
Fastned,Porrentruy,2900,Chem. de l'Oiselier,n/a,47.4045,7.05984,4
Fastned,Suhr,5034,Rastplatz Suhr A1,n/a,47.380548,8.109115,4
Fastned,Wileroltigen,3207,Grossacher 1A,n/a,46.962885,7.226768,4
Fastned,Zizers,7205,Rastplatz Apfelwuhr Nord A13,n/a,46.95768,9.54895,4
GoFast,Würenlos,5436,Raststätte Würenlos Limmat,,47.43821372,8.34654258,24
GoFast,Würenlos,5436,Raststätte Würenlos Wald,,47.43919795,8.34818906,21
GoFast,Thusis,7430,Fürstenauerstrasse 1,,46.71252406,9.4462359,17
GoFast,Coldrerio,6877,Area di Servizio Coldrerio Est,,45.849497,8.985468,15
GoFast,Zug,6300,Industriestrasse 12,,47.172642,8.517985,15
GoFast,Küssnacht a. R.,6403,Zugerstrasse 68,,47.10699242,8.44942422,13
GoFast,Matran,1753,Rte du Bois 11,,46.779099,7.089446,12
GoFast,Piotta-Quinto,6776,Area di Servizio Quinto,,46.51518779,8.66709094,10
GoFast,Aarberg,3270,Alte Lyssstrasse 2,,47.050573,7.28413,9
GoFast,Courgevaux,1796,Länggasse 47,,46.917786,7.10782,9
GoFast,Gland,1196,Avenue Du Mont-Blanc 38,,46.41458437,6.27335487,9
GoFast,Niederuzwil,9244,Grossacker 2,,47.444946,9.147929,9
GoFast,Oftringen,4665,Rastplatz Oftringen Ost,,47.315995,7.945074,9
GoFast,St. Margrethen,9430,Neugrütstrasse 1,,47.447913,9.653393,9
GoFast,Sursee,6210,Umfahrungsstrasse 1,,47.17097091,8.09469167,9
GoFast,Unterterzen,8882,Raststätte Walensee Süd,,47.112334,9.266048,9
GoFast,Vaduz,9490,Fürst-Franz-Josef-Strasse 2,,47.152038,9.51166,9
GoFast,Züberwangen,9523,Raststätte Thurau Nord,,47.46097413,9.09467609,9
GoFast,Züberwangen,9523,Raststätte Thurau Süd,,47.45984548,9.09267731,9
GoFast,Airolo,6780,Area di Servizio San Gottardo Sud Stalvedro,,46.520994,8.63569,8
GoFast,Bachenbülach,8184,Grabenstrasse 4b,,47.50527091,8.54303916,8
GoFast,Bellinzona,6503,Area di Servizio Bellinzona Nord,,46.20947383,9.02658266,8
GoFast,Biberist,4562,Bürenstrasse 91,,47.19764,7.529265,8
GoFast,Châtillens,1610,Route de Lausanne 1,,46.570384,6.816601,8
GoFast,Honau,6038,Gwärbstrasse 4,,47.13154924,8.40392241,8
GoFast,Kloten,8302,Flughafenstrasse 75,,47.44880461,8.56581634,8
GoFast,Monte Carasso,6513,Area di Servizio Bellinzona Sud,,46.182098,9.001826,8
GoFast,Oensingen,4702,Staadackerstrasse 15,,47.28689906,7.7180784,8
GoFast,Rüti,8630,Spitalstrasse 56,,47.260977,8.839995,8
GoFast,Walterswil,5746,Walterswilerstrasse,,47.321674,7.964616,8
GoFast,Coldrerio,6877,Area di Servizio Coldrerio Ovest,,45.850172,8.983045,7
GoFast,Crissier,1023,Rue de Morges 23,,46.546313,6.568244,7
GoFast,Horgen,8810,Zugerstrasse 231,,47.23815749,8.61156672,7
GoFast,Ingenbohl,6440,Gätzlistrasse 9,,47.00361769,8.62001451,7
GoFast,Kölliken,5742,Raststätte Süd,,47.323229,8.021076,7
GoFast,Martigny,1920,Rue du Battoir 6,,46.113987,7.077872,7
GoFast,Romanshorn,8590,Sonnenstrasse 9,,47.57046525,9.36588332,7
GoFast,St. Gallen,9015,Breitfeldstrasse 8a,,47.40842509,9.31160721,7
GoFast,Aigle,1860,Route Industrielle,,46.319003,6.936916,6
GoFast,Biasca,6710,Via Bellinzona 50,,46.348845,8.974406,6
GoFast,Ilanz,7130,Via Grüneck 2,,46.77546,9.190751,6
GoFast,Landquart,7302,Schulstrasse 82,,46.956199,9.564502,6
GoFast,Langenthal,4900,Aarwangenstrasse 82,,47.224068,7.779226,6
GoFast,Adliswil,8134,Zürichstrasse 114,,47.32776605,8.5301667,5
GoFast,Brig,3902,Kantonsstrasse 288,,46.306736,7.961126,5
GoFast,Charrat,1906,Aires de Repos Pierre-Avoi,,46.12529,7.118383,5
GoFast,Erstfeld,6472,Rastplatz Wiler,,46.814571,8.654142,5
GoFast,Itingen,4452,Rastplatz Sonnenberg Ost,,47.471401,7.79157,5
GoFast,Itingen,4452,Rastplatz Sonnenberg West,,47.47169061,7.78942442,5
GoFast,Martigny,1920,Aires de Repos Grand-Chavalard,,46.122049,7.111604,5
GoFast,Murten,3280,Grande Ferme 16,,46.94006794,7.14488146,5
GoFast,Nyon,1260,Chemin De La Fontaine 10,,46.387862,6.21989,5
GoFast,Oberriet,9463,Rheinstrasse 6,,47.311601,9.561792,5
GoFast,Quarten,8882,Raststätte Walensee Nord,,47.11337377,9.26766374,5
GoFast,Riddes,1908,Chem. des Babioux 8,,46.1675561,7.21124133,5
GoFast,Rümlang,8153,Flughofstrasse 77,,47.450576,8.54001,5
GoFast,Sarnen,6060,Güterstrasse 1A,,46.89898414,8.25060194,5
GoFast,Schenkon,6214,Grenzstrasse 1A,,47.184477,8.11182,5
GoFast,Silenen,6474,Rastplatz Grund,,46.78063,8.668093,5
GoFast,Spreitenbach,8957,Wigartestrasse 4,,47.418424,8.373758,5
GoFast,Thal,9425,Burietstrasse 2090,,47.47947395,9.57919228,5
GoFast,Thayngen,8240,Grenzstrasse 72,,47.740403,8.715321,5
GoFast,Bazenheid,9602,Wilerstrasse 50,,47.41646213,9.06526671,4
GoFast,Bremgarten,5620,Wohlerstrasse 51,,47.35565798,8.32573375,4
GoFast,Bülach,8180,Badenerstrasse,,47.516765,8.529478,4
GoFast,Dietlikon,8305,Widenholzstrasse 2,,47.41248646,8.61554814,4
GoFast,Giornico,6745,Via Industrie 16,,46.389786,8.890223,4
GoFast,Hendschiken,5604,Hornerstrasse 6,,47.3896718,8.20437602,4
GoFast,Ibach,6438,Mythencenterstrasse 15,,47.0159787,8.64492195,4
GoFast,Neuchatel-Thielle,2075,Le Verger 1,,47.02126403,7.02896779,4
GoFast,Schötz,6247,Schürmatt 5,,47.18201,7.98214,4
GoFast,Sempach-Station,6203,Industriestrasse 1,,47.117292,8.20119,4
GoFast,Sirnach,8370,Ebnetstrasse,,47.467029,8.993718,4
GoFast,Turbenthal,8488,Tösstalstrasse 11,,47.44133369,8.8340124,4
GoFast,Visp,3930,Bockbartstrasse 2,,46.296577,7.867674,4
GoFast,Weinfelden,8570,Dunantstrasse 6,,47.5684,9.093891,4
GoFast,Wettswil am Albis,8907,Moosstrasse 7,,47.33437568,8.46013564,4
GoFast,Wil,9500,Obere Bahnhofstrasse 19,,47.4639528,9.0429586,4
GoFast,Zizers,7205,Rappagugg 2,,46.91897649,9.56362761,4
GoFast,Zuchwil,4528,Schützenweg 2,,47.20167023,7.57141471,4
GoFast,Caslano,6987,Via Muraccio,,45.97727943,8.87620722,3
GoFast,Embrach,8424,Hardhofstrasse 7,,47.516392,8.594864,3
GoFast,Gunzgen,4616,Raststätte Gunzgen Süd,,47.31021276,7.84702426,3
GoFast,Gunzgen,4617,Raststätte Gunzgen Nord,,47.31017423,7.83189286,3
GoFast,La Chaux-de-Fonds,2300,Boulevard des Eplatures 62,,47.084093,6.796229,3
GoFast,Le Lignon,1219,Route du Bois-des-Frères 40,,46.206184,6.098508,3
GoFast,Maggia,6670,Via Cantonale,,46.19848439,8.75037712,3
GoFast,Porrentruy,2900,Chemin de la Perche,,47.41585846,7.08160445,3
GoFast,Sattel,6417,Parkplatz Kreisel,,47.07949148,8.63423171,3
GoFast,Seewen,6423,Bahnhofstrasse 156,,47.028107,8.631626,3
GoFast,Zweisimmen,3770,Thunstrasse 28a,,46.562619,7.375891,3
GoFast,Brügg,2555,Mittelstrasse 1,,47.11999096,7.2649041,2
GoFast,Cham,6330,Ringstrasse,,47.185967,8.4585,2
GoFast,Deitingen,4543,Raststätte Deitingen Süd,,47.2263336,7.6172171,2
GoFast,Dietikon,8953,Silbernstrasse 12,,47.4173195,8.39484282,2
GoFast,Ecublens,1015,Allée De Savoie,,46.51856,6.565145,2
GoFast,Hinwil,8340,Wässeristrasse 22,,47.30504579,8.82391915,2
GoFast,Kaiseraugst,4303,Lerchenweg 18,,47.538586,7.73407,2
GoFast,Köniz,3098,Brühlplatz,,46.926102,7.416834,2
GoFast,La Tour-de-Trême,1635,Route de l'Intyamon 107,,46.6018,7.074366,2
GoFast,Lugano-Pazzallo,6912,Via la Sguancia 9,,45.98531281,8.93714927,2
GoFast,Lyssach,3421,Kernenriedstrasse 1,,47.070149,7.566432,2
GoFast,Melide,6815,Via Cantonale 13,,45.954336,8.950502,2
GoFast,Mendrisio,6850,Via Angelo Maspoli 22,,45.875807,8.979663,2
GoFast,Pollegio,6742,Via al Brenno 4,,46.35930638,8.95702499,2
GoFast,Rossens,1728,Route de Montena 7,,46.72122633,7.08918234,2
GoFast,Rothrist,4852,Neue Aarburgerstrasse 2a,,47.31389544,7.89426514,2
GoFast,Schindellegi,8834,Höhenweg,,47.174078,8.712684,2
GoFast,Sihlbrugg,6340,Blegistrasse 1,,47.216437,8.572658,2
GoFast,St. Moritz,7500,Via Somplaz 33,,46.49200229,9.83333551,2
GoFast,Tenero,6598,Via Lido,,46.16983834,8.85477897,2
GoFast,Wattwil,9630,Industriestrasse,,47.29543,9.093964,2
IONITY,Fläsch,7304,A13 Zürich - Chur,,47.011751,9.512371,12
IONITY,Lindau,8310,"Autobahn A1, Raststätte Kemptthal",,47.449367,8.700137,12
IONITY,Oftringen,4665,Nordstrasse 14,,47.304254,7.929495,12
IONITY,Ittigen,3063,Wolfackerweg,,46.99019604,7.47599015,10
IONITY,Gisikon,6038,Tellstrasse 1,,47.12512416,8.39729001,8
IONITY,Grancia,6916,Via Cantonale,,45.974786,8.92796,8
IONITY,Interlaken,3800,Lindenallee 98,,46.688319,7.876687,8
IONITY,Münchenstein,4142,Reinacherstrasse,,47.525047,7.603794,8
IONITY,Bellinzona,6503,A2 Direzione Chiasso,,46.2095364,9.02671623,6
IONITY,Gossau,9201,"Freihof, Flawilerstrasse 46",,47.41298016,9.2405871,6
IONITY,Lully FR,1470,"Rastanlage Lully, Restoroute Rose de la Broye",,46.832458,6.859379,6
IONITY,Lyss,3250,Südstrasse 16a,,47.065369,7.291436,6
IONITY,Martigny,1920,"Rastanlage Martigny, A9",,46.127822,7.059829,6
IONITY,Monte Carasso,6513,Autostradale Sud,,46.18219616,9.00171324,6
IONITY,Rothenburg,6023,"Autobahn A2, Raststätte Neuenkirch Ost",,47.11335703,8.23225501,6
IONITY,Schattdorf,6467,"Autobahn A2, Raststätte Gotthard Nord",,46.84787668,8.63325253,6
IONITY,Schattdorf,6467,"Autobahn A2, Raststätte Gotthard Süd",,46.846522,8.632302,6
IONITY,Silvaplana,7513,Via Chantunela 1,,46.45562767,9.79073738,6
IWB Industrielle Werke Basel,Allschwil,4123,Gewerbestrasse 16,,47.557682,7.544926,12
IWB Industrielle Werke Basel,Basel,4056,Klingelbergstrasse 20,,47.561066,7.582413,8
IWB Industrielle Werke Basel,Basel,4051,Steinentorberg 5,,47.550565,7.58741,7
IWB Industrielle Werke Basel,Allschwil,4123,Hegenheimermattweg 91,,47.556862,7.54546,6
IWB Industrielle Werke Basel,Basel,4051,Steinenschanze 5,,47.552395,7.585879,6
IWB Industrielle Werke Basel,Basel,4052,RAlpin Novara-Freiburg,,47.562157,7.611516,5
IWB Industrielle Werke Basel,Basel,4052,Sankt Jakobs-Strasse 397,,47.541386,7.619899,5
IWB Industrielle Werke Basel,Basel,4058,Grenzacherstrasse 130,,47.559261,7.609299,5
IWB Industrielle Werke Basel,Basel,4052,Andreas Heusler-Strasse 36,,47.546902,7.602574,4
IWB Industrielle Werke Basel,Basel,4052,Sevogelstrasse 113,,47.54826205,7.59977898,4
IWB Industrielle Werke Basel,Basel,4055,Burgfelderstrasse 101,,47.564549,7.566957,4
IWB Industrielle Werke Basel,Basel,4057,Uferstrasse 70,,47.57951,7.586808,4
IWB Industrielle Werke Basel,Basel,4058,Grenzacherstrasse 228,,47.559738,7.612778,4
IWB Industrielle Werke Basel,Basel,4052,Zürcherstrasse 140,,47.555014,7.612606,3
IWB Industrielle Werke Basel,Basel,4053,Dornacherstrasse 210,,47.541336,7.594822,3
IWB Industrielle Werke Basel,Basel,4054,Birsigstrasse 43,,47.550396,7.58381,3
IWB Industrielle Werke Basel,Basel,4054,Brennerstrasse 9,,47.55212,7.572742,3
IWB Industrielle Werke Basel,Basel,4055,Allschwilerplatz 12,,47.55711,7.570447,3
IWB Industrielle Werke Basel,Basel,4055,Strassburgerallee 73,,47.56226,7.569858,3
IWB Industrielle Werke Basel,Basel,4055,Türkheimerstrasse 10,,47.558026,7.574528,3
IWB Industrielle Werke Basel,Basel,4056,Mülhauserstrasse 49,,47.56871,7.58071,3
IWB Industrielle Werke Basel,Basel,4056,Vogesenstrasse 143,,47.569855,7.573904,3
IWB Industrielle Werke Basel,Basel,4057,Claragraben 115,,47.563644,7.593264,3
IWB Industrielle Werke Basel,Basel,4057,Färberstrasse 3,,47.57620769,7.59147432,3
IWB Industrielle Werke Basel,Basel,4058,Erlenmattstrasse 22,,47.570149,7.600682,3
IWB Industrielle Werke Basel,Dornach,4143,Nepomukplatz 1,,47.48848,7.607683,3
IWB Industrielle Werke Basel,Muttenz,4127,In der Hard,,47.5474586,7.64722467,3
IWB Industrielle Werke Basel,Zwingen,4222,Baselstrasse 14,,47.439125,7.535987,3
IWB Industrielle Werke Basel,Aesch,4147,Bahnhofstrasse 42,,47.467464,7.602358,2
IWB Industrielle Werke Basel,Aesch,4147,Dornacherstrasse 85,,47.47784,7.602475,2
IWB Industrielle Werke Basel,Aesch,4147,Friedhofwägli,,47.465439,7.59765,2
IWB Industrielle Werke Basel,Arlesheim,4144,Domplatz 8,,47.492298,7.619881,2
IWB Industrielle Werke Basel,Arlesheim,4144,Schwimmbadweg 10,,47.498257,7.614353,2
IWB Industrielle Werke Basel,Basel,4051,Arnold Böcklin-Strasse 15,,47.55127,7.578587,2
IWB Industrielle Werke Basel,Basel,4051,Feierabendstrasse 36,,47.552353,7.581245,2
IWB Industrielle Werke Basel,Basel,4051,Holbeinstrasse 49,,47.552628,7.58456,2
IWB Industrielle Werke Basel,Basel,4051,Holbeinstrasse 66,,47.551592,7.583397,2
IWB Industrielle Werke Basel,Basel,4051,Socinstrasse 22,,47.557278,7.578804,2
IWB Industrielle Werke Basel,Basel,4052,Auf dem Wolf 4,,47.540028,7.614077,2
IWB Industrielle Werke Basel,Basel,4052,Engelgasse 133,,47.546497,7.606711,2
IWB Industrielle Werke Basel,Basel,4052,Gartenstrasse 110,,47.548447,7.593622,2
IWB Industrielle Werke Basel,Basel,4052,Gartenstrasse 150,,47.54694,7.591782,2
IWB Industrielle Werke Basel,Basel,4052,Gellertstrasse 144,,47.547298,7.616527,2
IWB Industrielle Werke Basel,Basel,4052,Gellertstrasse 34,,47.55167,7.609934,2
IWB Industrielle Werke Basel,Basel,4052,Gellertstrasse 4,,47.552452,7.605946,2
IWB Industrielle Werke Basel,Basel,4052,Grellingerstrasse 23,,47.550445,7.606981,2
IWB Industrielle Werke Basel,Basel,4052,Kapellenstrasse 35,,47.551018,7.602556,2
IWB Industrielle Werke Basel,Basel,4052,Lehenmattstrasse 305,,47.545464,7.621135,2
IWB Industrielle Werke Basel,Basel,4052,Lindenhofstrasse 26,,47.546898,7.595841,2
IWB Industrielle Werke Basel,Basel,4052,Malzgasse 26,,47.552639,7.596964,2
IWB Industrielle Werke Basel,Basel,4052,Sankt Alban-Ring 183,,47.54948,7.610069,2
IWB Industrielle Werke Basel,Basel,4052,Waldenburgerstrasse 10,,47.555252,7.608901,2
IWB Industrielle Werke Basel,Basel,4052,Weidengasse 25,,47.553612,7.606071,2
IWB Industrielle Werke Basel,Basel,4052,Wildensteinerstrasse 11,,47.554264,7.615458,2
IWB Industrielle Werke Basel,Basel,4053,Bruderholzstrasse 33,,47.544109,7.595079,2
IWB Industrielle Werke Basel,Basel,4053,Delsbergerallee 47,,47.540203,7.599747,2
IWB Industrielle Werke Basel,Basel,4053,Duggingerhof 57,,47.537405,7.611997,2
IWB Industrielle Werke Basel,Basel,4053,Frobenstrasse 47,,47.544193,7.58546,2
IWB Industrielle Werke Basel,Basel,4053,Gilgenbergerstrasse 18,,47.537777,7.602188,2
IWB Industrielle Werke Basel,Basel,4053,Gundeldingerstrasse 153,,47.541763,7.588074,2
IWB Industrielle Werke Basel,Basel,4053,Gundeldingerstrasse 311,,47.539951,7.593741,2
IWB Industrielle Werke Basel,Basel,4053,Gundeldingerstrasse 99,,47.542931,7.584566,2
IWB Industrielle Werke Basel,Basel,4053,Hochstrasse 111,,47.543664,7.598384,2
IWB Industrielle Werke Basel,Basel,4053,Laufenstrasse 29,,47.541645,7.599367,2
IWB Industrielle Werke Basel,Basel,4053,Pruntruterstrasse 1,,47.546192,7.580835,2
IWB Industrielle Werke Basel,Basel,4053,Tellstrasse 17,,47.543132,7.595917,2
IWB Industrielle Werke Basel,Basel,4053,Unterer Batterieweg 41,,47.539738,7.5879,2
IWB Industrielle Werke Basel,Basel,4054,Benkenstrasse 50,,47.548195,7.573797,2
IWB Industrielle Werke Basel,Basel,4054,Birsigstrasse 134,,47.55077,7.576788,2
IWB Industrielle Werke Basel,Basel,4054,Buchenstrasse 47,,47.556034,7.567584,2
IWB Industrielle Werke Basel,Basel,4054,Furkastrasse 1,,47.546631,7.562241,2
IWB Industrielle Werke Basel,Basel,4054,General Guisan-Strasse ,,47.55088387,7.56836202,2
IWB Industrielle Werke Basel,Basel,4054,Gotthelfstrasse 33,,47.552968,7.568924,2
IWB Industrielle Werke Basel,Basel,4054,Im Langen Loh 147,,47.551182,7.561164,2
IWB Industrielle Werke Basel,Basel,4054,Im Langen Loh 248,,47.54726,7.559858,2
IWB Industrielle Werke Basel,Basel,4054,In den Ziegelhöfen 87,,47.545563,7.561148,2
IWB Industrielle Werke Basel,Basel,4054,Kaltbrunnenstrasse 7,,47.545258,7.574635,2
IWB Industrielle Werke Basel,Basel,4054,Kastelstrasse 10,,47.545651,7.57463,2
IWB Industrielle Werke Basel,Basel,4054,Kluserstrasse 2,,47.550198,7.57319,2
IWB Industrielle Werke Basel,Basel,4054,Laupenring 157,,47.548715,7.566681,2
IWB Industrielle Werke Basel,Basel,4054,Marschalkenstrasse 127,,47.546116,7.569335,2
IWB Industrielle Werke Basel,Basel,4054,Oberalpstrasse 45,,47.549175,7.564314,2
IWB Industrielle Werke Basel,Basel,4054,Pilatusstrasse 26,,47.554186,7.563497,2
IWB Industrielle Werke Basel,Basel,4054,Reiterstrasse 40,,47.54789,7.565139,2
IWB Industrielle Werke Basel,Basel,4054,Rütimeyerstrasse 49,,47.548275,7.576259,2
IWB Industrielle Werke Basel,Basel,4054,Schweizergasse 64,,47.550329,7.575523,2
IWB Industrielle Werke Basel,Basel,4054,Sennheimerstrasse 61,,47.554241,7.569139,2
IWB Industrielle Werke Basel,Basel,4054,Tessinstrasse 10,,47.551323,7.564604,2
IWB Industrielle Werke Basel,Basel,4054,Thannerstrasse 45,,47.554568,7.572319,2
IWB Industrielle Werke Basel,Basel,4054,Wanderstrasse 161,,47.552219,7.559135,2
IWB Industrielle Werke Basel,Basel,4054,Weiherhofstrasse 127,,47.546988,7.558002,2
IWB Industrielle Werke Basel,Basel,4054,Weiherweg 38,,47.553616,7.575868,2
IWB Industrielle Werke Basel,Basel,4055,Belforterstrasse 135,,47.563395,7.556579,2
IWB Industrielle Werke Basel,Basel,4055,Bündnerstrasse 46,,47.558842,7.567603,2
IWB Industrielle Werke Basel,Basel,4055,Colmarerstrasse 124,,47.55756,7.568644,2
IWB Industrielle Werke Basel,Basel,4055,Colmarerstrasse 43,,47.560197,7.571542,2
IWB Industrielle Werke Basel,Basel,4055,Hegenheimerstrasse 166,,47.563511,7.56562,2
IWB Industrielle Werke Basel,Basel,4055,Hegenheimerstrasse 86,,47.561234,7.569727,2
IWB Industrielle Werke Basel,Basel,4055,Im Westfeld 30,,47.56488,7.564596,2
IWB Industrielle Werke Basel,Basel,4055,Missionsstrasse 21,,47.558777,7.577426,2
IWB Industrielle Werke Basel,Basel,4055,Nidwaldnerstrasse 45,,47.55896,7.563082,2
IWB Industrielle Werke Basel,Basel,4055,Nonnenweg 3,,47.556237,7.577207,2
IWB Industrielle Werke Basel,Basel,4055,Theodor Herzl-Strasse 90,,47.567158,7.559514,2
IWB Industrielle Werke Basel,Basel,4055,Türkheimerstrasse 30,,47.558525,7.574135,2
IWB Industrielle Werke Basel,Basel,4055,Welschmattstrasse 5,,47.563457,7.562596,2
IWB Industrielle Werke Basel,Basel,4056,Bernoullistrasse 10,,47.559719,7.58214,2
IWB Industrielle Werke Basel,Basel,4056,Flughafenstrasse ,,47.566156,7.573184,2
IWB Industrielle Werke Basel,Basel,4056,Gasstrasse 38,,47.569841,7.576203,2
IWB Industrielle Werke Basel,Basel,4056,Glaserbergstrasse 52,,47.566277,7.568351,2
IWB Industrielle Werke Basel,Basel,4056,Hebelstrasse 136,,47.564507,7.576268,2
IWB Industrielle Werke Basel,Basel,4056,Klingelbergstrasse 80,,47.564331,7.578897,2
IWB Industrielle Werke Basel,Basel,4056,Lenzgasse 39,,47.56884952,7.5700659,2
IWB Industrielle Werke Basel,Basel,4056,Mittlere Strasse 54,,47.562218,7.577475,2
IWB Industrielle Werke Basel,Basel,4056,Mülhauserstrasse 120,,47.566689,7.576116,2
IWB Industrielle Werke Basel,Basel,4056,Mülhauserstrasse 26,,47.569504,7.581953,2
IWB Industrielle Werke Basel,Basel,4056,Sankt Johanns-Platz 25,,47.566834,7.580781,2
IWB Industrielle Werke Basel,Basel,4056,Vogesenstrasse 80,,47.567432,7.576891,2
IWB Industrielle Werke Basel,Basel,4056,Voltastrasse 129,,47.570858,7.573082,2
IWB Industrielle Werke Basel,Basel,4057,Amerbachstrasse 66,,47.569228,7.594412,2
IWB Industrielle Werke Basel,Basel,4057,Bläsiring 158,,47.568821,7.595997,2
IWB Industrielle Werke Basel,Basel,4057,Drahtzugstrasse 65,,47.564049,7.597848,2
IWB Industrielle Werke Basel,Basel,4057,Efringerstrasse 80,,47.569543,7.596289,2
IWB Industrielle Werke Basel,Basel,4057,Gärtnerstrasse 105,,47.579361,7.592294,2
IWB Industrielle Werke Basel,Basel,4057,Gärtnerstrasse 113,,47.580124,7.592581,2
IWB Industrielle Werke Basel,Basel,4057,Inselstrasse 51,,47.577446,7.589386,2
IWB Industrielle Werke Basel,Basel,4057,Klingentalstrasse 25,,47.563965,7.594653,2
IWB Industrielle Werke Basel,Basel,4057,Klingentalstrasse 55,,47.564404,7.596202,2
IWB Industrielle Werke Basel,Basel,4057,Meisengasse 6,,47.569565,7.587441,2
IWB Industrielle Werke Basel,Basel,4057,Müllheimerstrasse 156,,47.570171,7.592328,2
IWB Industrielle Werke Basel,Basel,4057,Müllheimerstrasse 172,,47.571091,7.592344,2
IWB Industrielle Werke Basel,Basel,4057,Müllheimerstrasse 49,,47.565811,7.593109,2
IWB Industrielle Werke Basel,Basel,4057,Unterer Rheinweg 126,,47.567555,7.586453,2
IWB Industrielle Werke Basel,Basel,4057,Wiesenstrasse 51,,47.577911,7.594574,2
IWB Industrielle Werke Basel,Basel,4058,Alemannengasse 29,,47.557819,7.600694,2
IWB Industrielle Werke Basel,Basel,4058,Allmendstrasse 231,,47.56263,7.624636,2
IWB Industrielle Werke Basel,Basel,4058,Binzenstrasse 39,,47.567543,7.618955,2
IWB Industrielle Werke Basel,Basel,4058,Clarahofweg 32,,47.562107,7.597587,2
IWB Industrielle Werke Basel,Basel,4058,Egliseestrasse 85,,47.570488,7.615426,2
IWB Industrielle Werke Basel,Basel,4058,Egliseestrasse 90,,47.570521,7.616034,2
IWB Industrielle Werke Basel,Basel,4058,Hirzbrunnenstrasse 114,,47.564213,7.6183,2
IWB Industrielle Werke Basel,Basel,4058,Jägerstrasse 12,,47.568636,7.602176,2
IWB Industrielle Werke Basel,Basel,4058,Kleinriehenstrasse 111,,47.569031,7.617693,2
IWB Industrielle Werke Basel,Basel,4058,Kleinriehenstrasse 50,,47.567247,7.614721,2
IWB Industrielle Werke Basel,Basel,4058,Landauerhofweg 4,,47.566242,7.630246,2
IWB Industrielle Werke Basel,Basel,4058,Laufenburgerstrasse 30,,47.570003,7.613268,2
IWB Industrielle Werke Basel,Basel,4058,Maulbeerstrasse 8,,47.566712,7.599548,2
IWB Industrielle Werke Basel,Basel,4058,Maulbeerstrasse 97,,47.568325,7.605027,2
IWB Industrielle Werke Basel,Basel,4058,Peter Rot-Strasse 111,,47.562401,7.603909,2
IWB Industrielle Werke Basel,Basel,4058,Peter Rot-Strasse 16,,47.558193,7.604608,2
IWB Industrielle Werke Basel,Basel,4058,Riehenring 5,,47.561303,7.601868,2
IWB Industrielle Werke Basel,Basel,4058,Riehenstrasse 125,,47.564125,7.604504,2
IWB Industrielle Werke Basel,Basel,4058,Riehenstrasse 16,,47.560402,7.597571,2
IWB Industrielle Werke Basel,Basel,4058,Schorenweg 40,,47.57198,7.611363,2
IWB Industrielle Werke Basel,Basel,4058,Schwarzwaldallee 63,,47.56134,7.610832,2
IWB Industrielle Werke Basel,Basel,4058,Schwarzwaldstrasse,,47.565529,7.608528,2
IWB Industrielle Werke Basel,Basel,4058,Signalstrasse 21,,47.569859,7.603699,2
IWB Industrielle Werke Basel,Basel,4058,Theodorsgraben 24,,47.558386,7.598394,2
IWB Industrielle Werke Basel,Basel,4058,Wettsteinallee 14,,47.55994,7.600069,2
IWB Industrielle Werke Basel,Basel,4059,Asconastrasse 1,,47.5257,7.591362,2
IWB Industrielle Werke Basel,Basel,4059,Bruderholzallee 14,,47.53512675,7.58749474,2
IWB Industrielle Werke Basel,Basel,4059,Bruderholzallee 174,,47.53281,7.595721,2
IWB Industrielle Werke Basel,Basel,4059,Bruderholzrain 41,,47.537502,7.593345,2
IWB Industrielle Werke Basel,Basel,4059,Emil Angst-Strasse 35,,47.532188,7.603397,2
IWB Industrielle Werke Basel,Basel,4059,Fäschengasse 7,,47.529976,7.594904,2
IWB Industrielle Werke Basel,Basel,4059,Schäublinstrasse 91,,47.533356,7.583506,2
IWB Industrielle Werke Basel,Basel,4059,Seltisbergerstrasse 100,,47.527058,7.596283,2
IWB Industrielle Werke Basel,Basel,4059,Thiersteinerrain 70,,47.536494,7.597426,2
IWB Industrielle Werke Basel,Bettingen,4126,Hohestrasse,,47.571419,7.682965,2
IWB Industrielle Werke Basel,Bettingen,4126,Im Wenkenberg,,47.571503,7.663077,2
IWB Industrielle Werke Basel,Dornach,4143,Grundackerstrasse 12,,47.474861,7.6154,2
IWB Industrielle Werke Basel,Dornach,4143,Hauptstrasse 33,,47.478767,7.617387,2
IWB Industrielle Werke Basel,Frenkendorf,4402,Rheinstrasse 69,,47.506126,7.72143,2
IWB Industrielle Werke Basel,Muttenz,4132,Grendelweg,,47.526665,7.636719,2
IWB Industrielle Werke Basel,Muttenz,4132,Hauptstrasse 2,,47.522884,7.645311,2
IWB Industrielle Werke Basel,Muttenz,4132,Jakob-Eglin-Strasse / Hauptstrasse 80,,47.527191,7.648266,2
IWB Industrielle Werke Basel,Muttenz,4132,Lutzertstrasse 33,,47.534451,7.632875,2
IWB Industrielle Werke Basel,Münchenstein,4052,Brüglingerstrasse 21,,47.538796,7.617372,2
IWB Industrielle Werke Basel,Pfeffingen,4148,Allmendgasse 2,,47.459198,7.588237,2
IWB Industrielle Werke Basel,Pratteln,4133,Grüssenhölzliweg 6,,47.526421,7.692927,2
IWB Industrielle Werke Basel,Reinach,4153,Christoph Merian-Ring,,47.488438,7.600048,2
IWB Industrielle Werke Basel,Reinach,4153,Dornacherweg,,47.494682,7.601294,2
IWB Industrielle Werke Basel,Reinach,4153,Hauptstrasse 54,,47.491623,7.589,2
IWB Industrielle Werke Basel,Reinach,4153,Wielandstrasse,,47.494263,7.591556,2
IWB Industrielle Werke Basel,Reinach,4153,Zihlackerstrasse,,47.487949,7.586954,2
IWB Industrielle Werke Basel,Riehen,4125,Burgstrasse 7,,47.580511,7.647726,2
IWB Industrielle Werke Basel,Riehen,4125,Bäumlihofstrasse 414,,47.571926,7.631934,2
IWB Industrielle Werke Basel,Riehen,4125,Bäumliweg 14,,47.588142,7.658307,2
IWB Industrielle Werke Basel,Riehen,4125,Chrischonaweg 52,,47.583308,7.658474,2
IWB Industrielle Werke Basel,Riehen,4125,Gstaltenrainweg 1,,47.576977,7.638349,2
IWB Industrielle Werke Basel,Riehen,4125,Hackbergstrasse,,47.573448,7.646496,2
IWB Industrielle Werke Basel,Riehen,4125,Haselrain 65,,47.592533,7.655912,2
IWB Industrielle Werke Basel,Riehen,4125,Kilchgrundstrasse 58,,47.576908,7.642239,2
IWB Industrielle Werke Basel,Riehen,4125,Oberdorfstrasse 15,,47.586502,7.654862,2
IWB Industrielle Werke Basel,Riehen,4125,Rüchligweg 121,,47.569546,7.634082,2
IWB Industrielle Werke Basel,Riehen,4125,Schützenrainweg 34,,47.583927,7.655109,2
IWB Industrielle Werke Basel,Riehen,4125,Unterm Schellenberg 205,,47.570995,7.645942,2
IWB Industrielle Werke Basel,Riehen,4125,Wasserstelzenweg 15,,47.572746,7.63997,2
IWB Industrielle Werke Basel,Riehen,4125,Wettsteinstraße,,47.584093,7.651107,2
IWB Industrielle Werke Basel,Sisseln,4334,Bahnhofstrasse 14,,47.551395,7.989869,2
IWB Industrielle Werke Basel,Winterthur,8400,Ackeretstrasse 17,,47.503258,8.716413,2
IWB Industrielle Werke Basel,Winterthur,8400,Bullingerstrasse 2,,47.49081,8.745414,2
IWB Industrielle Werke Basel,Winterthur,8400,Nordstrasse 4,,47.503326,8.738253,2
IWB Industrielle Werke Basel,Zwingen,4222,Bünnenweg 16,,47.434547,7.52142,2
IWB Industrielle Werke Basel,Basel,4051,Fischmarkt 10,,47.559269,7.586563,1
IWB Industrielle Werke Basel,Basel,4059,Emil Angst-Strasse 29,,47.531971,7.603019,1
IWB Industrielle Werke Basel,Bettingen,4126,Talweg 2,,47.570141,7.66379,1
IWB Industrielle Werke Basel,Oberwil,4104,Sägestrasse 2,,47.511643,7.556136,1
Lidl Schweiz AG,Aarberg,3270,Alte Lyss-Strasse 7,,47.05210917,7.28578733,3
Lidl Schweiz AG,Altendorf,8852,Zürcherstrasse 68,,47.193791,8.818498,3
Lidl Schweiz AG,Amriswil,8580,Schrofenstrasse 13,,47.546864,9.27404,3
Lidl Schweiz AG,Arbon,9320,Pündtstrasse 7,,47.49903718,9.42122282,3
Lidl Schweiz AG,Bellach,4512,Grederstrasse 29,,47.211732,7.509765,3
Lidl Schweiz AG,Bevaix,2022,Chemin des Maladières 18,,46.92114504,6.80695355,3
Lidl Schweiz AG,Biasca,6710,Via Stefano Franscini 3,,46.351764,8.972606,3
Lidl Schweiz AG,Buchs,9470,Eichenaustrasse 35,,47.17772242,9.46801167,3
Lidl Schweiz AG,Böckten,4461,Hauptstrasse 23,,47.46245567,7.83841097,3
Lidl Schweiz AG,Courgevaux,1796,Fin de Mossard 3,,46.917241,7.107247,3
Lidl Schweiz AG,Döttingen,5312,Vorhard 14,,47.55691627,8.25065809,3
Lidl Schweiz AG,Dübendorf,8600,Im Schörli 20,,47.39503728,8.63867838,3
Lidl Schweiz AG,Einsiedeln,8840,Zürichstrasse 73,,47.13860367,8.74516538,3
Lidl Schweiz AG,Etoy,1163,Route d&#039;Allaman 41,,46.47455456,6.41364227,3
Lidl Schweiz AG,Flüelen,6454,Bahnhofstrasse 45,,46.895046,8.623613,3
Lidl Schweiz AG,Frauenfeld,8500,Langfeldstrasse 70,,47.56600319,8.90787629,3
Lidl Schweiz AG,Giubiasco,6512,Viale C. Olgiati 44,,46.182482,9.018005,3
Lidl Schweiz AG,Grenchen,2540,Solothurnstrasse 45,,47.19315443,7.39953552,3
Lidl Schweiz AG,Gwatt,3645,Moosweg 1,,46.72567811,7.61768949,3
Lidl Schweiz AG,Ins,3232,Rämismatte 21,,46.997287,7.108197,3
Lidl Schweiz AG,Jona,8645,Feldlistrasse 5,,47.22908613,8.84741936,3
Lidl Schweiz AG,Kehrsatz,3122,Im Breitenacker 3,,46.916936,7.466427,3
Lidl Schweiz AG,Kloten,8302,Schaffhauserstrasse 163,,47.45510103,8.57929384,3
Lidl Schweiz AG,Landquart,7302,Wuhrstrasse 22,,46.96899,9.569494,3
Lidl Schweiz AG,Lausen,4415,Hauptstrasse 135,,47.470631,7.765015,3
Lidl Schweiz AG,Moudon,1510,Le Devin 17,,46.661067,6.795602,3
Lidl Schweiz AG,Muri,5630,Aarauerstrasse 36,,47.27943408,8.33632987,3
Lidl Schweiz AG,Neftenbach,8413,Tössallmendstrasse 2A,,47.51950024,8.65752908,3
Lidl Schweiz AG,Oberglatt,8154,Lägernstrasse 4,,47.47538395,8.5065488,3
Lidl Schweiz AG,Oeschgen,5072,Hauptstrasse 419,,47.516311,8.013414,3
Lidl Schweiz AG,Oron,1610,Route de Lausanne 2,,46.572043,6.825683,3
Lidl Schweiz AG,Payerne,1530,Charrière d&#039;Estavayer 19,,46.827911,6.928436,3
Lidl Schweiz AG,Pfäffikon,8330,Schützenhausstrasse 7,,47.3662105,8.7709992,3
Lidl Schweiz AG,Reconvilier,2732,Grand-Rue 64,,47.234745,7.228936,3
Lidl Schweiz AG,Reinach,5734,Aarauerstrasse 52,,47.26395098,8.17649735,3
Lidl Schweiz AG,Rothrist,4852,Bernstrasse 140,,47.30548254,7.8849143,3
Lidl Schweiz AG,Sant&#039;Antonino,6592,Via Serrai 8,,46.154037,8.965348,3
Lidl Schweiz AG,Schaffhausen,8207,Im Majorenacker 16,,47.71701,8.66152,3
Lidl Schweiz AG,Schlieren,8952,Reitmenstrasse 5,,47.39943825,8.43217766,3
Lidl Schweiz AG,Seewen,6423,Bahnhofstrasse 192,,47.030555,8.628076,3
Lidl Schweiz AG,Sevelen,9475,Bahnweg Nord 15,,47.1261646,9.49570206,3
Lidl Schweiz AG,St. Gallen,9014,Lerchenfeldstrasse 11,,47.41342797,9.33994454,3
Lidl Schweiz AG,Stans,6370,Mühlebachstrasse 2,,46.9749,8.3758,3
Lidl Schweiz AG,Sursee,6210,Buchenstrasse 2,,47.174411,8.098613,3
Lidl Schweiz AG,Thusis,7430,Italienische Strasse 25,,46.710098,9.435802,3
Lidl Schweiz AG,Volketswil,8604,Müllerenstrasse 5,,47.37915206,8.67787338,3
Lidl Schweiz AG,Weinfelden,8570,Walkestrasse 28,,47.56523094,9.09648253,3
Lidl Schweiz AG,Wetzikon,8620,Grubenstrasse 18,,47.31497657,8.79645959,3
Lidl Schweiz AG,Widnau,9443,Rosenbergsaustrasse 1,,47.4055,9.6375,3
Lidl Schweiz AG,Willisau,6130,Wydenmatt 1,,47.130575,8.000707,3
Lidl Schweiz AG,Winterthur,8406,In der Au 10,,47.48650488,8.70413052,3
Lidl Schweiz AG,Winterthur,8409,Im Schönengrund 3,,47.499155,8.764195,3
Lidl Schweiz AG,Wittenbach,9300,Arbonerstrasse 25,,47.46318886,9.39370335,3
Lidl Schweiz AG,Wohlen,5610,Bullenbergstrasse 2,,47.34842783,8.26152716,3
Lidl Schweiz AG,Wädenswil,8820,Steinacherstrasse 147,,47.23648979,8.63580333,3
Lidl Schweiz AG,Zwingen,4222,Baselstrasse 43b,,47.43987534,7.53949423,3
M-Charge,Bern,3027,Gilberte-de-Courgenay-Platz,4,46.945651,7.373662,16
M-Charge,Zürich,8005,Limmatplatz,152,47.385527,8.531174,13
M-Charge,Crissier,1023 ,Chem. de Closalet,7,46.554073,6.568286,12
M-Charge,Sursee,6210,Bahnhofstrasse,30,47.173097,8.101702,12
M-Charge,Avry-sur-Matran,1754,Route de Matran,9,46.787497,7.079447,10
M-Charge,Bern,3027,Riedbachstrasse,104,46.943477,7.37092,10
M-Charge,Buchs AG,5033,Bresteneggstrasse,9b,47.384789,8.088376,10
M-Charge,Schönbühl,3322,Industriestrasse,10,47.017464,7.491441,10
M-Charge,Stans,6370,Bitzistrasse,2,46.964772,8.355126,10
M-Charge,Steinhausen,6312,Hinterbergstrasse,40,47.192491,8.477654,10
M-Charge,Zürich,8005,Pfingstweidstrasse,101,47.390041,8.50819,10
M-Charge,Abtwil,9030,Wiesenbachstrasse,9,47.417196,9.315509,9
M-Charge,Allschwil,4123,Spitzwaldstrasse,215,47.547436,7.553605,8
M-Charge,Basel,4053,Münchensteinerstrasse,200,47.539895,7.604597,8
M-Charge,Brügg b. Biel,2555,Erlenstrasse,40,47.120535,7.266545,8
M-Charge,Bubendorf,4416,Grüngenstrasse ,1,47.456898,7.743037,8
M-Charge,Conthey,1964,Route des Rottes,15,46.22354,7.301733,8
M-Charge,Delémont,2800,Rue de la Maltière,12,47.363705,7.346456,8
M-Charge,Gelterkinden,4460,Badweg,2,47.465913,7.85078,8
M-Charge,Glis,3902,Kantonsstrasse,58,46.309389,7.969952,8
M-Charge,La Chaux-de-Fonds,2300,Rue Daniel-Jeanrichard,23,47.100109,6.824852,8
M-Charge,Langendorf,4513,Fabrikstrasse,6,47.218328,7.512539,8
M-Charge,Marin-Epagnier,2074,Rue Fleur-de-Lys,26,47.011826,7.007571,8
M-Charge,Martigny,1920,Rue du Manoir,1,46.101302,7.071952,8
M-Charge,Monthey,1870,Avenue de la Gare,36,46.253846,6.952174,8
M-Charge,Romanel-sur-Lausanne,1032 ,En Félezin,N/A,46.558864,6.613014,8
M-Charge,Sion,1950,Avenue de France,14-20,46.228777,7.355941,8
M-Charge,Thun,3604,Talackerstrasse,62,46.744866,7.614488,8
M-Charge,Thun,3604,Weststrasse,14,46.7449,7.604324,8
M-Charge,Yverdon-les-Bains,1400 ,Rue de Neuchâtel,3,46.781477,6.635796,8
M-Charge,Bad Zurzach,5330,Promenadestrasse,10,47.585839,8.296136,6
M-Charge,Belp,3123,Steinbachstrasse 28,N/A,46.896773,7.492972,6
M-Charge,Bulle,1630,Rue Château d'En-Bas,2,46.624056,7.057711,6
M-Charge,Burgdorf,3400,Lyssachstrasse,27,47.059152,7.620775,6
M-Charge,Bülach,8180,Feldstrasse,85,47.510118,8.541448,6
M-Charge,Füllinsdorf,4414,Ergolzstrasse,2,47.502909,7.72512,6
M-Charge,Grenchen,2540,Freiestrasse,10,47.190111,7.399818,6
M-Charge,Herzogenbuchsee,3360,Bernstrasse,33,47.186557,7.704029,6
M-Charge,Hinterkappelen,3032,Kappelenring,2,46.966886,7.376596,6
M-Charge,Hochdorf,6280,Hauptstrasse,5,47.165797,8.291482,6
M-Charge,Horw,6048,Gemeindehausplatz,14,47.019048,8.309113,6
M-Charge,Interlaken,3800,Rugenparkstrasse,1,46.681345,7.851994,6
M-Charge,Köniz,3098,Bläuacker,10,46.92303,7.413583,6
M-Charge,Küssnacht am Rigi,6403 ,Siegwartstrasse ,11,47.08375,8.441099,6
M-Charge,Langenthal,4900,Wiesenstrasse,28,47.214419,7.784156,6
M-Charge,Lenzburg,5600,Bachstrasse,15,47.387667,8.176875,6
M-Charge,Ostermundigen,3072,Bernstrasse,114,46.956759,7.496052,6
M-Charge,Reinach,5734,Sandgasse,6,47.258465,8.182136,6
M-Charge,Rolle,1180 ,Av. de la Gare ,17,46.461227,6.337702,6
M-Charge,Sarnen,6060,Nelkenstrasse,5,46.897111,8.251352,6
M-Charge,St. Gallen,9008,Bachstrasse,29,47.435608,9.391615,6
M-Charge,Thalwil,8800,Alte Landstrasse,130,47.294209,8.56418,6
M-Charge,Unterentfelden,5035,Binzmattweg,8,47.362412,8.045516,6
M-Charge,Uznach,8730,Wiesentalstrasse,4,47.228146,8.965776,6
M-Charge,Vevey,1800,Avenue Gustave-Coindet,11,46.463941,6.840162,6
M-Charge,Visp,3930,Brückenweg,10,46.29339,7.879742,6
M-Charge,Wettingen,5430,Landstrasse,69,47.46751,8.324532,6
M-Charge,Wollerau,8832,Roosstrasse,23,47.191767,8.721521,6
M-Charge,Worb,3076,Richigenstrasse,1,46.926751,7.565091,6
M-Charge,Zofingen,4800,Aarburgerstrasse,5,47.291445,7.942174,6
M-Charge,Zürich,8048,Altstetterstrasse,145,47.388336,8.48774,6
M-Charge,Altdorf UR,6460,Gotthardstrasse,67,46.872948,8.650858,5
M-Charge,Steffisburg,3612,Oberdorfstrasse,33,46.781165,7.633717,5
M-Charge,Steffisburg,3612,Unterdorfstrasse,10,46.777506,7.63416,5
M-Charge,Agno,6982,Via Lugano,21,45.999227,8.905403,4
M-Charge,Allschwil,4123 ,Binningerstrasse,91,47.548464,7.546145,4
M-Charge,Altdorf,6460,Flüelerstrasse,154,46.896142,8.626626,4
M-Charge,Arbedo-Castione,6532 ,Via Corogna,N/A,46.22527,9.044441,4
M-Charge,Basel,4051,Aeschenvorstadt,24,47.5525,7.592683,4
M-Charge,Bellinzona,6500,Via San Gottardo,124,46.209922,9.039333,4
M-Charge,Bern,3012,Zähringerstrasse,43,46.955158,7.433717,4
M-Charge,Bern,3013,Breitenrainstrasse,11,46.957834,7.453361,4
M-Charge,Bioggio,6934 ,Via Lugano,1,46.017159,8.913942,4
M-Charge,Bleienbach,3368,Flugplatz,8,47.181648,7.743693,4
M-Charge,Bougy-Villars,1172 ,Rte du Signal,N/A,46.484784,6.348114,4
M-Charge,Bussigny,1030 ,Rue de la Gare ,2,46.547558,6.552765,4
M-Charge,Bülach,8180,Zürichstrasse,57,47.511548,8.543859,4
M-Charge,Cernier,2053 ,Rue Comble Emine ,5,47.058081,6.902484,4
M-Charge,Chur,7000,Rheinfelsstrasse,2,46.851421,9.512957,4
M-Charge,Collombey,1868,Route du Montagnier,103,46.267564,6.953292,4
M-Charge,Crans-Montana,3963,Route du Rawyl,32,46.30968,7.473532,4
M-Charge,Dielsdorf,8157 ,Ruchwiesenstrasse ,2,47.480373,8.464123,4
M-Charge,Egerkingen,4622,Hausimollstrasse,14,47.316738,7.80386,4
M-Charge,Egnach,9322,Romanshornerstrasse,129,47.547961,9.371698,4
M-Charge,Emmen,6020,Gerliswilstrasse,24,47.072345,8.279387,4
M-Charge,Flamatt,3175,Bernstrasse,50,46.890105,7.320582,4
M-Charge,Fully,1926 ,Chem. de Provence ,4,46.137211,7.118827,4
M-Charge,Glis,3902,Weidenweg,272,46.307596,7.966444,4
M-Charge,Goldau ,6410 ,Parkstrasse ,25,47.051037,8.551058,4
M-Charge,Gossau,9200,Wilerstrasse,90,47.419178,9.235054,4
M-Charge,Gretzenbach,5014,Oltnerstrasse,28,47.359781,7.989536,4
M-Charge,Gstaad,3780,Untergstaadstrasse,3,46.478278,7.282637,4
M-Charge,Hasle bei Burgdorf,3415,Emmenau,3,47.013448,7.659617,4
M-Charge,Huttwil,4950,Bernstrasse,6,47.113672,7.840246,4
M-Charge,Interlaken,3800,Lindenallee,98,46.688045,7.876711,4
M-Charge,Ittigen,3063,Talweg,6,46.97432,7.485193,4
M-Charge,Konolfingen,3510,Thunstrasse,17,46.876384,7.621252,4
M-Charge,Langnau i. E., 3550,Schlossstrasse,1a,46.939843,7.78761,4
M-Charge,Locarno,6600 ,Via Stefano Franscini,31,46.165693,8.795867,4
M-Charge,Lugano,6900,Via Pretorio,15,46.007197,8.952009,4
M-Charge,Luzern,6006,Kreuzbuchstrasse,53,47.054298,8.33967,4
M-Charge,Morat,3280,Bernstrasse,18,46.930091,7.123053,4
M-Charge,Morges,1110,Rue de la Gare,25,46.510132,6.494212,4
M-Charge,Möhlin,4313,Hauptstrasse,91,47.556372,7.846918,4
M-Charge,Münsingen,3110,Bahnhofplatz,5,46.873173,7.56021,4
M-Charge,Othmarsingen,5504,Ahornweg,14,47.407406,8.219939,4
M-Charge,Pfungen,8422,Weiacherstrasse,1,47.517192,8.651188,4
M-Charge,Prilly,1008,Rte de Cossonay,66,46.538,6.601326,4
M-Charge,Renens,1020,Av. du Silo,11,46.532928,6.586248,4
M-Charge,Rheinfelden,4310,Lindenstrasse,3,47.555335,7.798024,4
M-Charge,Roggwil,4914,Bahnhofstrasse,99,47.249552,7.813174,4
M-Charge,Romont FR,1680,Avenue de la Gare,7,46.692801,6.912345,4
M-Charge,Rüschlikon,8803,Zürcherstrasse,4,47.300079,8.549042,4
M-Charge,Saignelégier,2350 ,Chem. des Buissons,2,47.254611,7.000848,4
M-Charge,Saint-Maurice,1890 ,"Agaune Ctre, Av. du Simplon",15,46.214473,7.005574,4
M-Charge,Sainte-Croix,1450,Rue de l'Industrie,21,46.819404,6.503083,4
M-Charge,Schaffhausen,8207,Stüdliackerstrasse,4,47.719669,8.663662,4
M-Charge,Schwarzenburg,3150,Freiburgstrasse,5b,46.817555,7.339582,4
M-Charge,Sierre,3960,Avenue du Général Guisan,30,46.292262,7.52902,4
M-Charge,Spreitenbach,8957,Industriestrasse,160,47.425059,8.368848,4
M-Charge,St. Margrethen,9430,Grenzstrasse,31,47.455114,9.63809,4
M-Charge,Stans,6370,Rotzlochstrasse,1,46.966202,8.352972,4
M-Charge,Steinhausen,6312,Hinterbergstrasse,39,47.190966,8.476895,4
M-Charge,Studen,2557,Petinescastrasse,10,47.110758,7.299932,4
M-Charge,Taverne,6807 ,Via Cantonale,N/A,46.061226,8.93179,4
M-Charge,Trübbach,9477,Staatsstrasse,10,47.075263,9.486024,4
M-Charge,Volketswil,8604,Industriestrasse,20A,47.380544,8.674373,4
M-Charge,Wallisellen,8304,Husacherstrasse,2,47.408138,8.602153,4
M-Charge,Windisch,5210,Bachmattstrasse,35,47.474959,8.212791,4
M-Charge,Winterthur,8400,Schaffhauserstrasse,104,47.519043,8.720036,4
M-Charge,Winterthur,8406,In der Au,2,47.484637,8.704575,4
M-Charge,Wädenswil,8820,Oberdorfstrasse,27-31,47.228884,8.667523,4
M-Charge,Würenlingen,5303,Döttingerstrasse,1,47.520928,8.242608,4
M-Charge,Zuzwil,9524 ,St. Gallerstrasse,22,47.468482,9.108886,4
M-Charge,Zürich,8055,Birmensdorferstrasse,320,47.369992,8.508523,4
M-Charge,Herisau,9100,Kasernenstrasse,18,47.385934,9.282907,3
M-Charge,Romanel-sur-Lausanne,1032,Rte de Neuchâtel,4,46.57067,6.60529,3
M-Charge,Sissach,4450 ,Hauptstrasse ,17,47.462137,7.816328,3
M-Charge, Le Grand-Saconnex,1218,Rue Sonnex,20,46.228906,6.119806,2
M-Charge,Affoltern am Albis,8910,Oberdorfstrasse,4,47.278213,8.453283,2
M-Charge,Amriswil,8580,Rütistrasse,10a,47.546658,9.298107,2
M-Charge,Appenzell,9050,Feldstrasse,16,47.333685,9.404856,2
M-Charge,Ascona,6612,Via Locarno,14,46.163299,8.774374,2
M-Charge,Basel,4053,Güterstrasse,180,47.543568,7.592255,2
M-Charge,Bougy-Villars,1172 ,Rte du Signal,N/A,46.485326,6.355392,2
M-Charge,Carouge GE,1227,Avenue Vibert,32,46.184443,6.134449,2
M-Charge,Châtel-St-Denis,1618,Rte de Montreux,56,46.523646,6.904417,2
M-Charge,Chêne-Bougeries,1224,Chemin de la Gradelle,10,46.205515,6.181784,2
M-Charge,Chêne-Bourg,1225,Rue François-Perréard,21,46.1956,6.196397,2
M-Charge,Collonge-Bellerive,1245,Route de Thonon,55,46.240585,6.198764,2
M-Charge,Delémont,2800,Rue Emile-Boéchat,79,47.361721,7.356393,2
M-Charge,Dietikon,8953,Bernstrasse,386,47.384443,8.395877,2
M-Charge,Düdingen,3186,Käsereistrasse,3,46.847007,7.192004,2
M-Charge,Emmen,6020 ,Kapfstrasse ,3,47.090048,8.274023,2
M-Charge,Flamatt,3175,Bernstrasse,36,46.889742,7.319589,2
M-Charge,Gland,1196,Rue de Mauverney,22,46.416935,6.275779,2
M-Charge,Glarus,8750,Schweizerhofstrasse,6,47.040965,9.071012,2
M-Charge,Granges-Paccot,1763,Route d'Agy,2,46.821016,7.153964,2
M-Charge,Heiden,9410,Sonnentalstrasse,2,47.439038,9.536167,2
M-Charge,Heimberg,3627,Bernstrasse,223,46.782462,7.609588,2
M-Charge,Hilterfingen,3626 ,Staatsstrasse ,134,46.74521,7.645227,2
M-Charge,Kreuzlingen,8280,Romanshornerstrasse,111,47.639981,9.200147,2
M-Charge,La Chaux-de-Fonds,2300,Charles Naine,44,47.090119,6.803147,2
M-Charge,La Tour-de-Trême,1635,Route de Pra-Riond,2,46.600324,7.075991,2
M-Charge,Lenzburg,5600,Othmarsingerstrasse,2,47.390168,8.184631,2
M-Charge,Melano,6818,Via Tannini,12,45.928514,8.977094,2
M-Charge,Mels,8879,Grossfeldstrasse,56,47.041856,9.43248,2
M-Charge,Mendrisio,6850,Via Campagna Adorna,15,45.862668,8.972658,2
M-Charge,Morges,1110,Rue de Lausanne,73,46.517279,6.512113,2
M-Charge,Muri,5630,Pilatusstrasse,1,47.266535,8.347781,2
M-Charge,Muttenz,4132,Rothausstrasse ,17,47.526445,7.655626,2
M-Charge,Noville,1845,Rte du Simplon,24,46.386411,6.920152,2
M-Charge,Nyon,1260,Chemin de la Fontaine,1,46.388459,6.220678,2
M-Charge,Nyon,1260,Rue de la Morâche,6,46.382455,6.23474,2
M-Charge,Oberwil,4104,Mühlemattstrasse,18,47.509999,7.554717,2
M-Charge,Petit-Lancy,1213,Rue des Bossons,78-80,46.188786,6.110501,2
M-Charge,Pratteln,4133,Krummeneichstrasse,39,47.523727,7.705754,2
M-Charge,Reichenburg,8864,Gewerbestrasse,4,47.172463,8.969077,2
M-Charge,Reinach,4153,Kägenstrasse,1,47.489197,7.598369,2
M-Charge,Renens,1020,Avenue du Silo,7,46.533737,6.584993,2
M-Charge,Riazzino,6595,Via Cantonale,40,46.175131,8.889955,2
M-Charge,Richterswil,8805,Schützengass,4,47.206581,8.705471,2
M-Charge,Rothrist,4852,Neue Aarburgerstrasse,9,47.311396,7.894165,2
M-Charge,S. Antonino,6592,Via Serrai,5,46.154464,8.961953,2
M-Charge,Schlieren,8952,Rietbachstrasse,14,47.400789,8.435014,2
M-Charge,Sirnach,8370,Winterthurerstrasse,27,47.464276,8.991811,2
M-Charge,St. Gallen,9000,Zürcherstrasse,114,47.416474,9.344008,2
M-Charge,Stalden,3922,Talstrasse,14,46.247051,7.87673,2
M-Charge,Sursee,6210,Zeughausstrasse,38,47.173607,8.100315,2
M-Charge,Versoix,1290,Chemin de l'ancien péage,1,46.275283,6.167126,2
M-Charge,Villmergen,5612,Schulhausstrasse,2,47.347494,8.244148,2
M-Charge,Wetzikon,8620,Bahnhofstrasse,151,47.327891,8.799161,2
M-Charge,Wetzikon,8620,Hofstrasse,47,47.313893,8.795562,2
M-Charge,Wil,9500,Obere Bahnhofstrasse,5,47.462658,9.042737,2
M-Charge,Winterthur,8406,Zürcherstrasse,48,47.4955,8.712835,2
M-Charge,Wittenbach,9300,Oedenhof,1C,47.460351,9.389368,2
M-Charge,Wohlen,5610,Bahnhofstrasse,7,47.349233,8.272905,2
M-Charge,Wolhusen,6110,Entlebucherstrasse,36,47.056196,8.070154,2
M-Charge,Zürich,8052,Schaffhauserstrasse,470,47.419339,8.54851,2
M-Charge,Altstätten,9450,Stossstrasse,2,47.376987,9.536816,1
M-Charge,Amriswil,8580,Schrofenstrasse,19,47.548376,9.273555,1
M-Charge,Bazenheid,9602,Wilerstrasse,17,47.412746,9.068486,1
M-Charge,Bischofszell,9220,Steigstrasse,5,47.493002,9.244401,1
M-Charge,Buchs,9470,Churerstrasse,10,47.164022,9.471949,1
M-Charge,Embrach,8424 ,Bülacherstrasse,17,47.509969,8.59085,1
M-Charge,Goldach,9403,Ulrich-Röschstrasse,5,47.474893,9.467666,1
M-Charge,Gossau,9200,St. Gallerstrasse,115,47.417399,9.255826,1
M-Charge,Müllheim,8555,Thurstrasse,3,47.599642,9.000407,1
M-Charge,Münchwilen,9542,Wilerstrasse,5,47.477721,8.998228,1
M-Charge,St. Margrethen,9430,Neudorfstrasse,60,47.449045,9.651048,1
M-Charge,Sulgen,8583,Hauptstrasse,3,47.540461,9.182407,1
M-Charge,Thal,9425,Wiesentalstrasse,4,47.479313,9.577843,1
M-Charge,Turbenthal,8488,Tösstalstrasse,54,47.438611,8.844444,1
M-Charge,Tägerwilen,8274,Hauptstrasse,117,47.65409,9.14203,1
M-Charge,Zuzwil,9524,Herbergstrasse,17,47.471911,9.113133,1
MOBILECHARGE,Bettlach,,Solothurnstrasse,,47.1983112,7.429523799999999,2
MOBILECHARGE,Orpund,,Byfangstrasse,,47.1373202,7.3099548,2
MOBILECHARGE,Winterthur,,Klosterstrasse 17,,47.489101910137535,8.705486277384953,2
MOBILECHARGE,Rudolfstetten,,Grossmattstrasse,,47.37580233743219,8.387198966235715,1
MOBILECHARGE,Schönried,,Dorfstrasse,,46.5033527,7.2876736,1
MOBIMOEMOBILITY,Aarau,,Industriestrasse,,47.3924231,8.0615939,2
MOBIMOEMOBILITY,Kriens,,Sternmatt 6.2,,47.02755697301252,8.300293649334147,2
MOBIMOEMOBILITY,Küsnacht,,Seestrasse,,47.32515896361476,8.576289470100956,2
Move,Zürich,8001,Gessnerallee 14,,47.375245,8.535116,25
Move,Vernier,1214,Av. Louis-Casaï 27,,46.218695,6.112343,21
Move,Vernier,1214,Av. Louis-Casaï 27,,46.218466,6.112292,17
Move,Le Lignon,1219,Chemin du Château-Bloch 2,,46.206992,6.102381,16
Move,Versoix,1290,Chemin Jean-Baptiste Vandelle 2,,46.280249,6.166271,16
Move,Le Lignon,1219,Avenue de l'Etang,,46.217406,6.104485,14
Move,Le Lignon,1219,Rue Jean-Simonet 9,,46.208705,6.110036,14
Move,Aesch,4147,Löhrenacker,,47.47303,7.5853,12
Move,Arlesheim,4144,Talstrasse 47,,47.498344,7.608649,12
Move,Fribourg,1700,Chemin Saint-Léonard 7,,46.81769,7.156744,12
Move,Le Lignon,1219,Avenue de l'Etang,,46.21947,6.10257,12
Move,Le Lignon,1219,Avenue de l'Etang 60,,46.218528,6.102513,12
Move,Hägendorf,4614,SOCAR Rastplatz Teufengraben,,47.33317,7.821479,11
Move,Meyrin,1217,Avenue J.-D. Maillard 3,,46.228018,6.066377,11
Move,Bursins,1183,Aire d'autoroute la Côte Lac A1,,46.445,6.2979,10
Move,Bursins,1183,La Côte/A1 nord,,46.446593,6.297621,10
Move,Kriens,6010,Ringstrasse 19,,47.01743,8.30015,10
Move,Kölliken,5742,SOCAR Raststätte Kölliken,,47.330132,8.029941,10
Move,Le Lignon,1219,Avenue du Lignon 78,,46.20572,6.097367,10
Move,Meyrin,1217,Route de Pré-bois 29,,46.22797,6.104145,10
Move,Petit-Lancy,1213,Avenue du Petit-Lancy 7,,46.19092,6.117045,10
Move,Petit-Lancy,1213,Chemin des Rambossons 27,,46.178288,6.123697,10
Move,Thônex,1226,Avenue de Thônex,,50.0,-15.0,10
Move,Thônex,1226,Route de Jussy 20c,,46.196036,6.204102,10
Move,Wiesendangen,8543,SOCAR Rastplatz Stegen,,47.530691,8.852214,10
Move,Bern,3011,Postgasshalde 50,,46.94899,7.451877,9
Move,Genève,1200,PAV Vernets,,46.19281,6.136354,9
Move,Hägendorf,4614,SOCAR Rastplatz Eggberg,,47.336093,7.82902,9
Move,Pieterlen,2542,SOCAR Autobahnraststätte Pieterlen A5,,47.16885,7.3513,9
Move,Utzenstorf,3427,SOCAR Rastplatz Chölfeld,,47.114982,7.578051,9
Move,Wädenswil,8820,Herrlisberg Nord A3,,47.220893,8.661141,9
Move,Adliswil,8134,Rastplatz Aspholz,,47.320749,8.534174,8
Move,Bellevue,1293,Chemin Des Aiglons 8,,46.254292,6.153219,8
Move,Bulle,1630,Rue de Battentin 21,,46.632925,7.047311,8
Move,Egerkingen,4622,Oltnerstrasse 22,,47.321851,7.796933,8
Move,Genève,1201,Rue de Montbrillant 38,,46.214323,6.142729,8
Move,Genève,1215,Route de Pré-Bois 20,,46.22441,6.100902,8
Move,Genève,1215,Route de Pré-Bois 20,,46.224439,6.100978,8
Move,Le Lignon,1219,Avenue de l'Etang,,46.216,6.104699,8
Move,Le Lignon,1219,Avenue du Lignon 10,,46.201345,6.092611,8
Move,Meinier,1252,Chemin du Stade 5,,46.247398,6.232372,8
Move,Plan-les-Ouates,1228,Parking des Aviateurs,,46.169493,6.120823,8
Move,St. Gallen,9016,Rorschacher Strasse 286,,47.44319,9.41551,8
Move,Bavois,1372,Autoroute A1,,46.674727,6.569302,7
Move,Bern,3006,Bolligenstrasse 61,,46.957043,7.467978,7
Move,Bern,3014,Papiermühlestrasse 85,,46.963458,7.466318,7
Move,Bourg-en-Lavaux,1091,Autoroute du Rhône,,46.505273,6.710488,7
Move,Knutwil,6212,SOCAR Rastplatz Knutwil Süd,,47.189067,8.07671,7
Move,Lully,1470,Restauroute Rose de la Broye,,46.831906,6.858031,7
Move,Meilen,8706,Bahnhofstrasse 35,,47.269114,8.643989,7
Move,Niederurnen,8867,Nideracher 1,,47.137827,9.049753,7
Move,Niederurnen,8867,Tschachen 2,,47.138261,9.050816,7
Move,Riazzino,6595,Via Stradonino 1,,46.17432,8.887295,7
Move,Sion,1950,Aire de repos La Biolaz / Uvrier,,46.243337,7.40439,7
Move,Sion,1950,Aire de repos Les Îles,,46.213233,7.317259,7
Move,Avry-devant-Pont,1644,Le Restoroute 174a / Autoroute A12,,46.682833,7.086911,6
Move,Bern,3008,Murtenstrasse 98,,46.95226,7.416771,6
Move,Bern,3010,Freiburgstrasse 20,,46.94677,7.42442,6
Move,Bern,3013,Kornhausstrasse 3,,46.953133,7.448084,6
Move,Bern,3014,Papiermühlestrasse,,46.963821,7.466938,6
Move,Bodio,6743,Area di sosta - A2,,46.37356,8.91699,6
Move,Fribourg,1700,Rue François-d'Alt,,46.810168,7.155438,6
Move,Grand-Lancy,1212,Chemin des Palettes,,46.175741,6.121411,6
Move,Gurtnellen,6482,Rastplatz Gurtnellen A2 (Fahrtrichtung Süd),,46.725986,8.622027,6
Move,Maienfeld,7304,Raststätte A13 Heidiland,,47.011542,9.512752,6
Move,Meyrin,1217,Av. J.-D.-Maillard,,50.0,-15.0,6
Move,Meyrin,1217,Route de Meyrin,,50.0,-15.0,6
Move,Mumpf,4322,Rastplatz Mumpf Nord,,47.545601,7.932082,6
Move,Mumpf,4322,Rastplatz Mumpf Süd,,47.545138,7.932071,6
Move,Olten,4600,Fährweg 6,,47.355822,7.905016,6
Move,Petit-Lancy,1213,Chem. du Bac 15-13,,46.193706,6.113973,6
Move,Plan-les-Ouates,1228,Chemin de Champ-Joly 2,,46.169531,6.113294,6
Move,Plan-les-Ouates,1228,Chemin de Vers 5,,46.168765,6.121938,6
Move,Satigny,1242,Route de la Maison-Carrée,,46.20027,6.058841,6
Move,Schattdorf,6467,A2 Gotthardraststätte Ost,,46.847858,8.633193,6
Move,St. Gallen,9000,Burggraben 16,,47.425514,9.378698,6
Move,Thônex,1226,Chemin du Bois-Des-Arts 58,,46.187807,6.197807,6
Move,Vernier,1214,Av. Louis-Casaï 27,,46.219285,6.112364,6
Move,Versoix,1290,Parking Colombières,,46.280143,6.160972,6
Move,Versoix,1290,Place Bordier,,46.2849,6.16616,6
Move,Versoix,1290,Route de l'Etraz 201,,46.295433,6.156189,6
Move,Wängi,9545,Rastplatz Hexentobel Süd,,47.488845,8.95582,6
Move,Wängi,9546,Rastplatz Hexentobel Nord,,47.48977,8.955567,6
Move,Areuse,2015,Route du Vignoble 25,,46.95507,6.847463,5
Move,Bernex,1233,Rue de Bernex 190,,46.17871,6.083126,5
Move,Fribourg,1700,Chem. de la Motta,,46.803223,7.161114,5
Move,Genève,1201,Quai Turrettini 1,,46.205696,6.140263,5
Move,Genève,1202,Rue de Varembé 2,,46.221181,6.13901,5
Move,Iseltwald,3807,Rastplatz Glooten Nord,,46.720369,7.989007,5
Move,Iseltwald,3807,Rastplatz Glooten Süd,,46.720291,7.99018,5
Move,Knutwil,6213,SOCAR Rastplatz Knutwil Nord,,47.197801,8.064481,5
Move,Le Grand-Saconnex,1218,Route François-Peyrot 30,,46.235213,6.118014,5
Move,Lens,1978,Rte du Lac,,46.28137,7.44789,5
Move,Meyrin,1217,Esp. des particules,,46.23432,6.055602,5
Move,Montreux,1820,Avenue Claude Nobs 2,,46.438253,6.906206,5
Move,Oftringen,4665,Zürichstrasse 52,,47.311283,7.935439,5
Move,Saint-Maurice,1890,SOCAR Rastplatz Cime de l'est,,46.184507,7.025459,5
Move,Saint-Maurice,1890,SOCAR Rastplatz Dents de Morcles,,46.184466,7.026493,5
Move,Schattdorf,6467,A2 Gotthardraststätte West,,46.846514,8.632299,5
Move,Trubschachen,3555,Mühlestrasse 8,,46.920211,7.849946,5
Move,Täsch,3929,Bahnhofplatz 1,,46.066767,7.775114,5
Move,Wabern,3084,Mani-Matter-Platz 1,,46.928079,7.447173,5
Move,Allschwil,4123,Winzerweg 5,,47.547636,7.538879,4
Move,Anzère,1972,Route de Bonnefille 70,,46.290885,7.393744,4
Move,Ardon,1957,Rastplatz Ardon Nord Autobahn,,46.197027,7.253799,4
Move,Ardon,1957,Rastplatz Ardon Süd,,46.200218,7.259124,4
Move,Avry-devant-Pont,1644,Route de la Gruyère 123,,46.686604,7.096771,4
Move,Aïre,1219,Chemin de la Verseuse 17,,50.0,-15.0,4
Move,Bern,3010,Murtenstrasse 10,,46.948885,7.427197,4
Move,Bern,3011,Waisenhausplatz 19,,46.949918,7.445497,4
Move,Bern,3012,Parkterrasse 14,,46.949661,7.43813,4
Move,Bern,3012,Parkterrasse 14,,46.950013,7.439031,4
Move,Bern,3015,Jupiterstrasse 1,,46.93854,7.48074,4
Move,Bern,3015,Jupiterstrasse 41,,46.93828,7.48488,4
Move,Bern,3018,Wangenstrasse 102,,46.932968,7.386128,4
Move,Binningen,4102,Schlossgasse 4,,47.537648,7.573943,4
Move,Birr,5242,Rastplatz Birrhard,,47.429519,8.236032,4
Move,Birsfelden,4127,Klünenfeldstrasse 22,,47.543814,7.630439,4
Move,Buchs,9470,Werdenbergstrasse 4,,47.173094,9.474367,4
Move,Chancy,1284,Route de Bellegarde 91,,46.149778,5.970007,4
Move,Chancy,1284,Route de Bellegarde 91,,50.0,-15.0,4
Move,Chavannes-de-Bogis,1279,Les Champs-Blancs,,46.33473,6.161517,4
Move,Châtel-Saint-Denis,1619,Rte des Dailles 19-15,,46.52171,6.949929,4
Move,Chêne-Bougeries,1224,Chemin de la Tulette 8,,46.206319,6.185137,4
Move,Cologny,1223,Chemin de la Mairie 25,,46.218591,6.185099,4
Move,Cologny,1223,Place du Manoir,,46.21678,6.182494,4
Move,Confignon,1232,Chemin de Sous le Clos,,46.174795,6.082456,4
Move,Confignon,1232,Rue Edouard Vallet,,46.182028,6.089896,4
Move,Dardagny,1283,Route du Mandement,,46.192516,5.995825,4
Move,Düdingen,3186,Schiffenen 15,,46.879514,7.192632,4
Move,Ebikon,6030,Zugerstrasse,,47.094378,8.360316,4
Move,Eich,6205,Rastplatz Inseli Autobahn A2,,47.155836,8.15718,4
Move,Epagny,1663,Route de l'Intyamon 336,,46.588347,7.084378,4
Move,Fribourg,1700,Chem. de la Patinoire,,46.804924,7.166764,4
Move,Fribourg,1700,Rue de Morat,,46.811379,7.158181,4
Move,Genève,1205,Rue des Gazomètres 397,,50.0,-15.0,4
Move,Genève,1209,Av. Louis-Casaï 27,,46.218641,6.112537,4
Move,Genève,1211,Rue Chabrey 37,,50.0,-15.0,4
Move,Genève,1211,Rue Schaub 39,,50.0,-15.0,4
Move,Genève,1215,Route de Pré-Bois 20,,46.224098,6.100777,4
Move,Givisiez,1762,Impasse de la Colline 4,,46.812218,7.13759,4
Move,Gruyères,1663,Route de la Cité,,46.58243,7.078416,4
Move,Hauterive,1725,Aire de repos Les Mueses,,46.773264,7.09317,4
Move,Hauterive,1730,Aire de repos La Tuffière,,46.754026,7.090834,4
Move,Heerbrugg,9435,Erlenstrasse,,47.41135,9.62817,4
Move,Inwil,6037,SOCAR Raststätte St. Katharina Nord,,47.119628,8.374184,4
Move,Inwil,6037,SOCAR Raststätte St. Katharina Süd,,47.118701,8.375723,4
Move,Kreuzlingen,8280,Marktstrasse,,47.648504,9.172974,4
Move,Kriens,6010,Hofmattweg 4,,47.032998,8.282416,4
Move,La Plaine,1283,Chemin du Rail 8,,46.178436,6.000907,4
Move,Le Grand-Saconnex,1218,Rue Alberto-Giacometti 10,,46.227504,6.119558,4
Move,Liebefeld,3097,Schwarzenburgstrasse 160,,46.93114,7.41979,4
Move,Mariastein,41115,Klosterplatz 2,,47.4745,7.4897,4
Move,Münchenstein,4142,Weidenstrasse 27,,47.513261,7.616152,4
Move,Münchenstein,4142,Weidenstrasse 31,,47.513564,7.616168,4
Move,Münchwilen,4333,Breitenloh 5.3,,47.542533,7.969202,4
Move,Noiraigue,2103,Rue de l'Areuse,,46.953742,6.724183,4
Move,Olten,4600,Schützenmattweg 18,,47.34891,7.90275,4
Move,Othmarsingen,5504,Rastplatz Othmarsingen,,47.402428,8.207455,4
Move,Payerne,1530,ZI Palaz C 36,,46.826177,6.928017,4
Move,Peseux NE,2034,Rue Ernest-Roulet 4,,46.9856,6.8877,4
Move,Plaffeien,1716,Seestrasse,,46.670415,7.287903,4
Move,Plan-les-Ouates,1228,Route des Chevaliers-de-Malte 13,,46.167383,6.118704,4
Move,Porrentruy,2900,Au Voyeboeuf 7,,47.415751,7.092039,4
Move,Porrentruy,2900,Rue des Planchettes 35,,47.413702,7.079431,4
Move,Romont,1680,Route d'Arruffens,,46.686294,6.910249,4
Move,Saint-Prex,1162,SOCAR Rastplatz Saint-Prex Lac,,46.480738,6.434645,4
Move,Schaffhausen,8200,Kirchhofplatz 22,,47.69644,8.63665,4
Move,Schaffhausen,8200,Munotstrasse 50,,47.698872,8.64032,4
Move,Schaffhausen,8200,Niklausenplatz,,47.70497,8.64849,4
Move,Schaffhausen,8200,Zur Stahlgiesserei,,47.70506,8.63161,4
Move,Schaffhausen,8201,Mühlenstrasse 19,,47.693216,8.629117,4
Move,Schaffhausen,8204,Hauentalstrasse,,47.71217,8.623899,4
Move,Sedrun,7188,Via Alpsu 68,,46.679034,8.77255,4
Move,Sempach,6204,Rastplatz Chilchbühl Autobahn A2,,47.144187,8.184216,4
Move,Solothurn,4500,Schöngrünstrasse 38,,47.199006,7.53682,4
Move,St. Gallen,9000,Lagerstrasse 6,,47.422804,9.367154,4
Move,St. Gallen,9000,Splügenstrasse 12,,47.431215,9.383365,4
Move,St. Moritz,7500,Via Giovanni Segantini 4a,,46.487916,9.835704,4
Move,Tenniken BL,4456,Rastplatz Mühlematt Ost,,47.428388,7.809169,4
Move,Tenniken BL,4456,Rastplatz Mühlematt West,,47.428801,7.808488,4
Move,Thônex,1226,Chemin de Marcelly,,46.195472,6.204242,4
Move,Tübach,9327,Sportfeldstrasse,,47.477966,9.457749,4
Move,Uster,8610,Feldhofstrasse 3,,47.352237,8.723286,4
Move,Vallamand,1586,Route du Lac 114,,46.929581,7.044102,4
Move,Vernier,1214,Chemin de Champs-Prévost 30,,50.0,-15.0,4
Move,Versoix,1290,Grand-Montfleury,,46.291637,6.163465,4
Move,Versoix,1290,Route de Sauverny 8,,46.284211,6.164412,4
Move,Wangen bei Olten,4612,Industriestrasse 30,,47.341526,7.862588,4
Move,Widnau,9443,Zehntfeldstrasse 4,,47.407474,9.632395,4
Move,Wilen,9535,Engistrasse 94,,47.446885,9.035897,4
Move,Willisau,6130,Zehntenpl. 2,,47.119726,7.988063,4
Move,Allschwil,4123,Dürenmattweg 2,,47.552401,7.546455,3
Move,Altstätten,9450,Oberrieterstrasse 87,,47.36375,9.555458,3
Move,Baden,5400,Pfisterstrasse 1,,47.46627,8.311256,3
Move,Baden,5400,Stadtturmstrasse 6,,47.475391,8.306562,3
Move,Bern,3006,Wölflistrasse 5,,46.965814,7.475599,3
Move,Biel,2504,Boulevard des Sports 18,,47.156015,7.282329,3
Move,Boudry,2017,Route du Perreux 8,,46.944404,6.823914,3
Move,Breitenbach,4226,Grubenweg,,47.407058,7.542336,3
Move,Bronschhofen,9552,Hauptstrasse 43a,,47.480084,9.03371,3
Move,Buchs,9470,Bahnhofstrasse,,47.167062,9.478932,3
Move,Bulle,1630,Rue de Battentin 21,,46.633058,7.047088,3
Move,Bursins,1183,SOCAR La Cote/A1 Sud,,46.44484,6.297604,3
Move,Bärau,3552,Bäraustrasse 60,,46.930868,7.810377,3
Move,Chevroux,1545,Avenue du Port,,46.89444,6.90143,3
Move,Cortaillod,2016,Chemin des Echelles 1,,46.94358,6.84119,3
Move,Dornach,4143,Amtshausstrasse 12,,47.488509,7.610074,3
Move,Dübendorf,8600,Überlandstrasse 189,,47.401042,8.619707,3
Move,Ecublens,1024,Route de Reculan 11,,46.538048,6.552853,3
Move,Fribourg,1700,Route de Tavel 8,,46.810574,7.177401,3
Move,Gebenstorf,5412,Im Halt 2,,47.489416,8.245731,3
Move,Grabs,9472,Lindenweg 2,,47.182523,9.444981,3
Move,Granges-Paccot,1763,Route de Morat 135,,46.823068,7.149427,3
Move,Gähwil,9534,Kirchbergstrasse 36,,47.397221,9.006424,3
Move,Kirchberg,3422,Industrie Neuhof 1a,,47.09311,7.572529,3
Move,Küsnacht,8700,Freihofstrasse 30,,47.30994,8.58603,3
Move,Küsnacht,8700,Seestrasse 120,,47.31877,8.57894,3
Move,Lancy,1212,Avenue Eugène-Lance,,46.183643,6.122544,3
Move,Laufen,4242,Naustrasse,,47.420908,7.503054,3
Move,Lausanne,1010,Route de Berne 144,,46.540969,6.658346,3
